{
"type": "FeatureCollection",
"crs": { "type": "name", "properties": { "name": "urn:ogc:def:crs:OGC:1.3:CRS84" } },
                                                                                
"features": [
{ "type": "Feature", "properties": { "Name": "Mouaskar", "description": null, "timestamp": null, "begin": null, "end": null, "altitudeMode": null, "tessellate": -1, "extrude": -1, "visibility": 0, "drawOrder": null, "icon": null, "folders": "Wine Regions of the World\/\/Africa\/\/Wine regions of Algeria\/\/" }, "geometry": { "type": "Point", "coordinates": [ 0.150559416187491, 35.371436439638131, 0.0 ] } },
{ "type": "Feature", "properties": { "Name": "al-Midyah", "description": null, "timestamp": null, "begin": null, "end": null, "altitudeMode": null, "tessellate": -1, "extrude": -1, "visibility": 0, "drawOrder": null, "icon": null, "folders": "Wine Regions of the World\/\/Africa\/\/Wine regions of Algeria\/\/" }, "geometry": { "type": "Point", "coordinates": [ 2.774005622497398, 36.252584483670361, 0.0 ] } },
{ "type": "Feature", "properties": { "Name": "AOG Berkane", "description": null, "timestamp": null, "begin": null, "end": null, "altitudeMode": null, "tessellate": -1, "extrude": -1, "visibility": 0, "drawOrder": null, "icon": null, "folders": "Wine Regions of the World\/\/Africa\/\/Wine regions of Morocco\/\/" }, "geometry": { "type": "Point", "coordinates": [ -3.530505061919328, 35.199911634081637, 0.0 ] } },
{ "type": "Feature", "properties": { "Name": "AOG Zenata", "description": null, "timestamp": null, "begin": null, "end": null, "altitudeMode": null, "tessellate": -1, "extrude": -1, "visibility": 0, "drawOrder": null, "icon": null, "folders": "Wine Regions of the World\/\/Africa\/\/Wine regions of Morocco\/\/" }, "geometry": { "type": "Point", "coordinates": [ -7.318848383540101, 33.576219273064552, 0.0 ] } },
{ "type": "Feature", "properties": { "Name": "Robertson", "description": null, "timestamp": null, "begin": null, "end": null, "altitudeMode": null, "tessellate": -1, "extrude": -1, "visibility": 0, "drawOrder": null, "icon": null, "folders": "Wine Regions of the World\/\/Africa\/\/Wine Regions of South Africa\/\/Breede River Valley\/\/" }, "geometry": { "type": "Point", "coordinates": [ 19.873116683432631, -33.811705074739471, 0.0 ] } },
{ "type": "Feature", "properties": { "Name": "Swellendam", "description": null, "timestamp": null, "begin": null, "end": null, "altitudeMode": null, "tessellate": -1, "extrude": -1, "visibility": 0, "drawOrder": null, "icon": null, "folders": "Wine Regions of the World\/\/Africa\/\/Wine Regions of South Africa\/\/Breede River Valley\/\/" }, "geometry": { "type": "Point", "coordinates": [ 20.423370615095099, -34.040632842039898, 0.0 ] } },
{ "type": "Feature", "properties": { "Name": "Worcester", "description": null, "timestamp": null, "begin": null, "end": null, "altitudeMode": null, "tessellate": -1, "extrude": -1, "visibility": 0, "drawOrder": null, "icon": null, "folders": "Wine Regions of the World\/\/Africa\/\/Wine Regions of South Africa\/\/Breede River Valley\/\/" }, "geometry": { "type": "Point", "coordinates": [ 19.399120615398079, -33.646726850999862, 0.0 ] } },
{ "type": "Feature", "properties": { "Name": "Cape Agulhas", "description": null, "timestamp": null, "begin": null, "end": null, "altitudeMode": null, "tessellate": -1, "extrude": -1, "visibility": 0, "drawOrder": null, "icon": null, "folders": "Wine Regions of the World\/\/Africa\/\/Wine Regions of South Africa\/\/" }, "geometry": { "type": "Point", "coordinates": [ 19.81693465624063, -34.527395447887692, 0.0 ] } },
{ "type": "Feature", "properties": { "Name": "Cederberg", "description": null, "timestamp": null, "begin": null, "end": null, "altitudeMode": null, "tessellate": -1, "extrude": -1, "visibility": 0, "drawOrder": null, "icon": null, "folders": "Wine Regions of the World\/\/Africa\/\/Wine Regions of South Africa\/\/" }, "geometry": { "type": "Point", "coordinates": [ 19.157147107102549, -32.436959113924161, 0.0 ] } },
{ "type": "Feature", "properties": { "Name": "Tulbagh", "description": null, "timestamp": null, "begin": null, "end": null, "altitudeMode": null, "tessellate": -1, "extrude": -1, "visibility": 0, "drawOrder": null, "icon": null, "folders": "Wine Regions of the World\/\/Africa\/\/Wine Regions of South Africa\/\/Coastal Region\/\/" }, "geometry": { "type": "Point", "coordinates": [ 19.14149854343114, -33.268979125322687, 0.0 ] } },
{ "type": "Feature", "properties": { "Name": "Swartland", "description": null, "timestamp": null, "begin": null, "end": null, "altitudeMode": null, "tessellate": -1, "extrude": -1, "visibility": 0, "drawOrder": null, "icon": null, "folders": "Wine Regions of the World\/\/Africa\/\/Wine Regions of South Africa\/\/Coastal Region\/\/" }, "geometry": { "type": "Point", "coordinates": [ 18.727405238721399, -33.478826810189169, 0.0 ] } },
{ "type": "Feature", "properties": { "Name": "Stellenbosch", "description": null, "timestamp": null, "begin": null, "end": null, "altitudeMode": null, "tessellate": -1, "extrude": -1, "visibility": 0, "drawOrder": null, "icon": null, "folders": "Wine Regions of the World\/\/Africa\/\/Wine Regions of South Africa\/\/Coastal Region\/\/" }, "geometry": { "type": "Point", "coordinates": [ 18.841169858679748, -33.907244984181972, 0.0 ] } },
{ "type": "Feature", "properties": { "Name": "Tygerberg", "description": null, "timestamp": null, "begin": null, "end": null, "altitudeMode": null, "tessellate": -1, "extrude": -1, "visibility": 0, "drawOrder": null, "icon": null, "folders": "Wine Regions of the World\/\/Africa\/\/Wine Regions of South Africa\/\/Coastal Region\/\/" }, "geometry": { "type": "Point", "coordinates": [ 18.62500995258015, -33.805749807689352, 0.0 ] } },
{ "type": "Feature", "properties": { "Name": "Darling", "description": null, "timestamp": null, "begin": null, "end": null, "altitudeMode": null, "tessellate": -1, "extrude": -1, "visibility": 0, "drawOrder": null, "icon": null, "folders": "Wine Regions of the World\/\/Africa\/\/Wine Regions of South Africa\/\/Coastal Region\/\/" }, "geometry": { "type": "Point", "coordinates": [ 18.361585837842942, -33.382673950738237, 0.0 ] } },
{ "type": "Feature", "properties": { "Name": "Cape Point", "description": null, "timestamp": null, "begin": null, "end": null, "altitudeMode": null, "tessellate": -1, "extrude": -1, "visibility": 0, "drawOrder": null, "icon": null, "folders": "Wine Regions of the World\/\/Africa\/\/Wine Regions of South Africa\/\/Coastal Region\/\/" }, "geometry": { "type": "Point", "coordinates": [ 18.425602798953339, -34.07864795872716, 0.0 ] } },
{ "type": "Feature", "properties": { "Name": "Constantia", "description": null, "timestamp": null, "begin": null, "end": null, "altitudeMode": null, "tessellate": -1, "extrude": -1, "visibility": 0, "drawOrder": null, "icon": null, "folders": "Wine Regions of the World\/\/Africa\/\/Wine Regions of South Africa\/\/Coastal Region\/\/" }, "geometry": { "type": "Point", "coordinates": [ 18.417993340662139, -34.042822490645143, 0.0 ] } },
{ "type": "Feature", "properties": { "Name": "Ceres", "description": null, "timestamp": null, "begin": null, "end": null, "altitudeMode": null, "tessellate": -1, "extrude": -1, "visibility": 0, "drawOrder": null, "icon": null, "folders": "Wine Regions of the World\/\/Africa\/\/Wine Regions of South Africa\/\/" }, "geometry": { "type": "Point", "coordinates": [ 19.318673607344522, -33.350929265284442, 0.0 ] } },
{ "type": "Feature", "properties": { "Name": "Douglas", "description": null, "timestamp": null, "begin": null, "end": null, "altitudeMode": null, "tessellate": -1, "extrude": -1, "visibility": 0, "drawOrder": null, "icon": null, "folders": "Wine Regions of the World\/\/Africa\/\/Wine Regions of South Africa\/\/" }, "geometry": { "type": "Point", "coordinates": [ 23.79563143892311, -29.044591562361909, 0.0 ] } },
{ "type": "Feature", "properties": { "Name": "Hartswater", "description": null, "timestamp": null, "begin": null, "end": null, "altitudeMode": null, "tessellate": -1, "extrude": -1, "visibility": 0, "drawOrder": null, "icon": null, "folders": "Wine Regions of the World\/\/Africa\/\/Wine Regions of South Africa\/\/" }, "geometry": { "type": "Point", "coordinates": [ 24.8087672023123, -27.778636203978309, 0.0 ] } },
{ "type": "Feature", "properties": { "Name": "Herbertsdale", "description": null, "timestamp": null, "begin": null, "end": null, "altitudeMode": null, "tessellate": -1, "extrude": -1, "visibility": 0, "drawOrder": null, "icon": null, "folders": "Wine Regions of the World\/\/Africa\/\/Wine Regions of South Africa\/\/" }, "geometry": { "type": "Point", "coordinates": [ 21.749695392535742, -34.013635504752749, 0.0 ] } },
{ "type": "Feature", "properties": { "Name": "Calitzdorp", "description": null, "timestamp": null, "begin": null, "end": null, "altitudeMode": null, "tessellate": -1, "extrude": -1, "visibility": 0, "drawOrder": null, "icon": null, "folders": "Wine Regions of the World\/\/Africa\/\/Wine Regions of South Africa\/\/Klein Karoo\/\/" }, "geometry": { "type": "Point", "coordinates": [ 21.67491643783859, -33.541547198804601, 0.0 ] } },
{ "type": "Feature", "properties": { "Name": "Montagu", "description": null, "timestamp": null, "begin": null, "end": null, "altitudeMode": null, "tessellate": -1, "extrude": -1, "visibility": 0, "drawOrder": null, "icon": null, "folders": "Wine Regions of the World\/\/Africa\/\/Wine Regions of South Africa\/\/Klein Karoo\/\/" }, "geometry": { "type": "Point", "coordinates": [ 20.135960824980529, -33.782075992722163, 0.0 ] } },
{ "type": "Feature", "properties": { "Name": "Outeniqua", "description": null, "timestamp": null, "begin": null, "end": null, "altitudeMode": null, "tessellate": -1, "extrude": -1, "visibility": 0, "drawOrder": null, "icon": null, "folders": "Wine Regions of the World\/\/Africa\/\/Wine Regions of South Africa\/\/Klein Karoo\/\/" }, "geometry": { "type": "Point", "coordinates": [ 22.32193034196283, -34.01471273177328, 0.0 ] } },
{ "type": "Feature", "properties": { "Name": "Upper Langkloof", "description": null, "timestamp": null, "begin": null, "end": null, "altitudeMode": null, "tessellate": -1, "extrude": -1, "visibility": 0, "drawOrder": null, "icon": null, "folders": "Wine Regions of the World\/\/Africa\/\/Wine Regions of South Africa\/\/Klein Karoo\/\/" }, "geometry": { "type": "Point", "coordinates": [ 23.143548989628972, -33.642926719455218, 0.0 ] } },
{ "type": "Feature", "properties": { "Name": "Tradouw", "description": null, "timestamp": null, "begin": null, "end": null, "altitudeMode": null, "tessellate": -1, "extrude": -1, "visibility": 0, "drawOrder": null, "icon": null, "folders": "Wine Regions of the World\/\/Africa\/\/Wine Regions of South Africa\/\/Klein Karoo\/\/" }, "geometry": { "type": "Point", "coordinates": [ 20.721418767303501, -34.006856622206108, 0.0 ] } },
{ "type": "Feature", "properties": { "Name": "Lower Orange", "description": null, "timestamp": null, "begin": null, "end": null, "altitudeMode": null, "tessellate": -1, "extrude": -1, "visibility": 0, "drawOrder": null, "icon": null, "folders": "Wine Regions of the World\/\/Africa\/\/Wine Regions of South Africa\/\/" }, "geometry": { "type": "Point", "coordinates": [ 21.18873298327722, -28.524221457417031, 0.0 ] } },
{ "type": "Feature", "properties": { "Name": "Lutzville Valley", "description": null, "timestamp": null, "begin": null, "end": null, "altitudeMode": null, "tessellate": -1, "extrude": -1, "visibility": 0, "drawOrder": null, "icon": null, "folders": "Wine Regions of the World\/\/Africa\/\/Wine Regions of South Africa\/\/Olifants River\/\/" }, "geometry": { "type": "Point", "coordinates": [ 18.302205454305991, -31.544973563344492, 0.0 ] } },
{ "type": "Feature", "properties": { "Name": "Citrusdal Mountain", "description": null, "timestamp": null, "begin": null, "end": null, "altitudeMode": null, "tessellate": -1, "extrude": -1, "visibility": 0, "drawOrder": null, "icon": null, "folders": "Wine Regions of the World\/\/Africa\/\/Wine Regions of South Africa\/\/Olifants River\/\/" }, "geometry": { "type": "Point", "coordinates": [ 18.9301773082754, -32.582431839207807, 0.0 ] } },
{ "type": "Feature", "properties": { "Name": "Citrusdal Valley", "description": null, "timestamp": null, "begin": null, "end": null, "altitudeMode": null, "tessellate": -1, "extrude": -1, "visibility": 0, "drawOrder": null, "icon": null, "folders": "Wine Regions of the World\/\/Africa\/\/Wine Regions of South Africa\/\/Olifants River\/\/" }, "geometry": { "type": "Point", "coordinates": [ 18.97964594818281, -32.540270760089719, 0.0 ] } },
{ "type": "Feature", "properties": { "Name": "Overberg", "description": null, "timestamp": null, "begin": null, "end": null, "altitudeMode": null, "tessellate": -1, "extrude": -1, "visibility": 0, "drawOrder": null, "icon": null, "folders": "Wine Regions of the World\/\/Africa\/\/Wine Regions of South Africa\/\/" }, "geometry": { "type": "Point", "coordinates": [ 19.224645600871149, -34.399818433990319, 0.0 ] } },
{ "type": "Feature", "properties": { "Name": "Prince Albert Valley", "description": null, "timestamp": null, "begin": null, "end": null, "altitudeMode": null, "tessellate": -1, "extrude": -1, "visibility": 0, "drawOrder": null, "icon": null, "folders": "Wine Regions of the World\/\/Africa\/\/Wine Regions of South Africa\/\/" }, "geometry": { "type": "Point", "coordinates": [ 22.036557282545679, -33.226106736071223, 0.0 ] } },
{ "type": "Feature", "properties": { "Name": "Ruiterbosch", "description": null, "timestamp": null, "begin": null, "end": null, "altitudeMode": null, "tessellate": -1, "extrude": -1, "visibility": 0, "drawOrder": null, "icon": null, "folders": "Wine Regions of the World\/\/Africa\/\/Wine Regions of South Africa\/\/" }, "geometry": { "type": "Point", "coordinates": [ 22.017157412588599, -33.938844336079228, 0.0 ] } },
{ "type": "Feature", "properties": { "Name": "Rietrivier", "description": null, "timestamp": null, "begin": null, "end": null, "altitudeMode": null, "tessellate": -1, "extrude": -1, "visibility": 0, "drawOrder": null, "icon": null, "folders": "Wine Regions of the World\/\/Africa\/\/Wine Regions of South Africa\/\/" }, "geometry": { "type": "Point", "coordinates": [ 26.953411948854129, -33.527368389320493, 0.0 ] } },
{ "type": "Feature", "properties": { "Name": "Swartberg", "description": null, "timestamp": null, "begin": null, "end": null, "altitudeMode": null, "tessellate": -1, "extrude": -1, "visibility": 0, "drawOrder": null, "icon": null, "folders": "Wine Regions of the World\/\/Africa\/\/Wine Regions of South Africa\/\/" }, "geometry": { "type": "Point", "coordinates": [ 29.363548833897131, -30.231221604283959, 0.0 ] } },
{ "type": "Feature", "properties": { "Name": "Walker Bay", "description": null, "timestamp": null, "begin": null, "end": null, "altitudeMode": null, "tessellate": -1, "extrude": -1, "visibility": 0, "drawOrder": null, "icon": null, "folders": "Wine Regions of the World\/\/Africa\/\/Wine Regions of South Africa\/\/" }, "geometry": { "type": "Point", "coordinates": [ 19.442333762583139, -34.435254531178501, 0.0 ] } },
{ "type": "Feature", "properties": { "Name": "Paarl", "description": null, "timestamp": null, "begin": null, "end": null, "altitudeMode": null, "tessellate": -1, "extrude": -1, "visibility": 0, "drawOrder": null, "icon": null, "folders": "Wine Regions of the World\/\/Africa\/\/Wine Regions of South Africa\/\/" }, "geometry": { "type": "Point", "coordinates": [ 18.96707928929148, -33.692218802427632, 0.0 ] } },
{ "type": "Feature", "properties": { "Name": "Takilsah", "description": null, "timestamp": null, "begin": null, "end": null, "altitudeMode": null, "tessellate": -1, "extrude": -1, "visibility": 0, "drawOrder": null, "icon": null, "folders": "Wine Regions of the World\/\/Africa\/\/Wine regions of Tunisia\/\/" }, "geometry": { "type": "Point", "coordinates": [ 10.61186104053677, 36.776745763748842, 0.0 ] } },
{ "type": "Feature", "properties": { "Name": "Qalibyah", "description": null, "timestamp": null, "begin": null, "end": null, "altitudeMode": null, "tessellate": -1, "extrude": -1, "visibility": 0, "drawOrder": null, "icon": null, "folders": "Wine Regions of the World\/\/Africa\/\/Wine regions of Tunisia\/\/" }, "geometry": { "type": "Point", "coordinates": [ 11.110665373930431, 36.858996454023938, 0.0 ] } },
{ "type": "Feature", "properties": { "Name": "Western Plains", "description": null, "timestamp": null, "begin": null, "end": null, "altitudeMode": null, "tessellate": -1, "extrude": -1, "visibility": 0, "drawOrder": null, "icon": null, "folders": "Wine Regions of the World\/\/Asia and Oceania\/\/Wine Regions of Australia\/\/New South Wales\/\/" }, "geometry": { "type": "Point", "coordinates": [ 148.637671479877298, -32.264375774937847, 0.0 ] } },
{ "type": "Feature", "properties": { "Name": "Tumbarumba", "description": null, "timestamp": null, "begin": null, "end": null, "altitudeMode": null, "tessellate": -1, "extrude": -1, "visibility": 0, "drawOrder": null, "icon": null, "folders": "Wine Regions of the World\/\/Asia and Oceania\/\/Wine Regions of Australia\/\/New South Wales\/\/Southern New South Wales\/\/" }, "geometry": { "type": "Point", "coordinates": [ 147.983662093209404, -35.769376537837182, 0.0 ] } },
{ "type": "Feature", "properties": { "Name": "Hilltops", "description": null, "timestamp": null, "begin": null, "end": null, "altitudeMode": null, "tessellate": -1, "extrude": -1, "visibility": 0, "drawOrder": null, "icon": null, "folders": "Wine Regions of the World\/\/Asia and Oceania\/\/Wine Regions of Australia\/\/New South Wales\/\/Southern New South Wales\/\/" }, "geometry": { "type": "Point", "coordinates": [ 148.285496322970914, -34.282628632630242, 0.0 ] } },
{ "type": "Feature", "properties": { "Name": "Gundagai", "description": null, "timestamp": null, "begin": null, "end": null, "altitudeMode": null, "tessellate": -1, "extrude": -1, "visibility": 0, "drawOrder": null, "icon": null, "folders": "Wine Regions of the World\/\/Asia and Oceania\/\/Wine Regions of Australia\/\/New South Wales\/\/Southern New South Wales\/\/" }, "geometry": { "type": "Point", "coordinates": [ 147.72787042429411, -35.058211349069502, 0.0 ] } },
{ "type": "Feature", "properties": { "Name": "Canberra District", "description": null, "timestamp": null, "begin": null, "end": null, "altitudeMode": null, "tessellate": -1, "extrude": -1, "visibility": 0, "drawOrder": null, "icon": null, "folders": "Wine Regions of the World\/\/Asia and Oceania\/\/Wine Regions of Australia\/\/New South Wales\/\/Southern New South Wales\/\/" }, "geometry": { "type": "Point", "coordinates": [ 149.180213614293791, -35.309982934034927, 0.0 ] } },
{ "type": "Feature", "properties": { "Name": "Southern Highlands", "description": null, "timestamp": null, "begin": null, "end": null, "altitudeMode": null, "tessellate": -1, "extrude": -1, "visibility": 0, "drawOrder": null, "icon": null, "folders": "Wine Regions of the World\/\/Asia and Oceania\/\/Wine Regions of Australia\/\/New South Wales\/\/South Coast\/\/" }, "geometry": { "type": "Point", "coordinates": [ 150.347021568740502, -34.420439120732773, 0.0 ] } },
{ "type": "Feature", "properties": { "Name": "Shoalhaven Coast", "description": null, "timestamp": null, "begin": null, "end": null, "altitudeMode": null, "tessellate": -1, "extrude": -1, "visibility": 0, "drawOrder": null, "icon": null, "folders": "Wine Regions of the World\/\/Asia and Oceania\/\/Wine Regions of Australia\/\/New South Wales\/\/South Coast\/\/" }, "geometry": { "type": "Point", "coordinates": [ 150.559738190201386, -34.839884726106483, 0.0 ] } },
{ "type": "Feature", "properties": { "Name": "Northern Slopes", "description": null, "timestamp": null, "begin": null, "end": null, "altitudeMode": null, "tessellate": -1, "extrude": -1, "visibility": 0, "drawOrder": null, "icon": null, "folders": "Wine Regions of the World\/\/Asia and Oceania\/\/Wine Regions of Australia\/\/New South Wales\/\/" }, "geometry": { "type": "Point", "coordinates": [ 152.00275905082259, -29.032994493894311, 0.0 ] } },
{ "type": "Feature", "properties": { "Name": "Northern Rivers - Hastings River", "description": null, "timestamp": null, "begin": null, "end": null, "altitudeMode": null, "tessellate": -1, "extrude": -1, "visibility": 0, "drawOrder": null, "icon": null, "folders": "Wine Regions of the World\/\/Asia and Oceania\/\/Wine Regions of Australia\/\/New South Wales\/\/" }, "geometry": { "type": "Point", "coordinates": [ 152.79364035717839, -31.435875959069168, 0.0 ] } },
{ "type": "Feature", "properties": { "Name": "Broke Fordwich", "description": null, "timestamp": null, "begin": null, "end": null, "altitudeMode": null, "tessellate": -1, "extrude": -1, "visibility": 0, "drawOrder": null, "icon": null, "folders": "Wine Regions of the World\/\/Asia and Oceania\/\/Wine Regions of Australia\/\/New South Wales\/\/Hunter Valley\/\/" }, "geometry": { "type": "Point", "coordinates": [ 151.04323895079591, -32.711495063316562, 0.0 ] } },
{ "type": "Feature", "properties": { "Name": "Hunter", "description": null, "timestamp": null, "begin": null, "end": null, "altitudeMode": null, "tessellate": -1, "extrude": -1, "visibility": 0, "drawOrder": null, "icon": null, "folders": "Wine Regions of the World\/\/Asia and Oceania\/\/Wine Regions of Australia\/\/New South Wales\/\/Hunter Valley\/\/" }, "geometry": { "type": "Point", "coordinates": [ 150.759017908366701, -32.32293718893817, 0.0 ] } },
{ "type": "Feature", "properties": { "Name": "Orange", "description": null, "timestamp": null, "begin": null, "end": null, "altitudeMode": null, "tessellate": -1, "extrude": -1, "visibility": 0, "drawOrder": null, "icon": null, "folders": "Wine Regions of the World\/\/Asia and Oceania\/\/Wine Regions of Australia\/\/New South Wales\/\/Central Ranges\/\/" }, "geometry": { "type": "Point", "coordinates": [ 149.139613954948089, -33.32451712380486, 0.0 ] } },
{ "type": "Feature", "properties": { "Name": "Mudgee", "description": null, "timestamp": null, "begin": null, "end": null, "altitudeMode": null, "tessellate": -1, "extrude": -1, "visibility": 0, "drawOrder": null, "icon": null, "folders": "Wine Regions of the World\/\/Asia and Oceania\/\/Wine Regions of Australia\/\/New South Wales\/\/Central Ranges\/\/" }, "geometry": { "type": "Point", "coordinates": [ 149.590488802330611, -32.391862865153172, 0.0 ] } },
{ "type": "Feature", "properties": { "Name": "Cowra", "description": null, "timestamp": null, "begin": null, "end": null, "altitudeMode": null, "tessellate": -1, "extrude": -1, "visibility": 0, "drawOrder": null, "icon": null, "folders": "Wine Regions of the World\/\/Asia and Oceania\/\/Wine Regions of Australia\/\/New South Wales\/\/Central Ranges\/\/" }, "geometry": { "type": "Point", "coordinates": [ 148.690616766048606, -33.870967067225102, 0.0 ] } },
{ "type": "Feature", "properties": { "Name": "Murray Darling", "description": null, "timestamp": null, "begin": null, "end": null, "altitudeMode": null, "tessellate": -1, "extrude": -1, "visibility": 0, "drawOrder": null, "icon": null, "folders": "Wine Regions of the World\/\/Asia and Oceania\/\/Wine Regions of Australia\/\/New South Wales\/\/Big Rivers\/\/" }, "geometry": { "type": "Point", "coordinates": [ 142.142386819291488, -34.169902347830707, 0.0 ] } },
{ "type": "Feature", "properties": { "Name": "Perricoota", "description": null, "timestamp": null, "begin": null, "end": null, "altitudeMode": null, "tessellate": -1, "extrude": -1, "visibility": 0, "drawOrder": null, "icon": null, "folders": "Wine Regions of the World\/\/Asia and Oceania\/\/Wine Regions of Australia\/\/New South Wales\/\/Big Rivers\/\/" }, "geometry": { "type": "Point", "coordinates": [ 144.728258930849393, -36.046528149430799, 0.0 ] } },
{ "type": "Feature", "properties": { "Name": "Riverina", "description": null, "timestamp": null, "begin": null, "end": null, "altitudeMode": null, "tessellate": -1, "extrude": -1, "visibility": 0, "drawOrder": null, "icon": null, "folders": "Wine Regions of the World\/\/Asia and Oceania\/\/Wine Regions of Australia\/\/New South Wales\/\/Big Rivers\/\/" }, "geometry": { "type": "Point", "coordinates": [ 146.005992403379594, -34.272059376225862, 0.0 ] } },
{ "type": "Feature", "properties": { "Name": "Swan Hill", "description": null, "timestamp": null, "begin": null, "end": null, "altitudeMode": null, "tessellate": -1, "extrude": -1, "visibility": 0, "drawOrder": null, "icon": null, "folders": "Wine Regions of the World\/\/Asia and Oceania\/\/Wine Regions of Australia\/\/New South Wales\/\/Big Rivers\/\/" }, "geometry": { "type": "Point", "coordinates": [ 143.556305103970686, -35.366782168218911, 0.0 ] } },
{ "type": "Feature", "properties": { "Name": "Northern Territory", "description": null, "timestamp": null, "begin": null, "end": null, "altitudeMode": null, "tessellate": -1, "extrude": -1, "visibility": 0, "drawOrder": null, "icon": null, "folders": "Wine Regions of the World\/\/Asia and Oceania\/\/Wine Regions of Australia\/\/" }, "geometry": { "type": "Point", "coordinates": [ 133.92706742318299, -23.778224097337802, 0.0 ] } },
{ "type": "Feature", "properties": { "Name": "South Burnett", "description": null, "timestamp": null, "begin": null, "end": null, "altitudeMode": null, "tessellate": -1, "extrude": -1, "visibility": 0, "drawOrder": null, "icon": null, "folders": "Wine Regions of the World\/\/Asia and Oceania\/\/Wine Regions of Australia\/\/Queensland\/\/" }, "geometry": { "type": "Point", "coordinates": [ 151.832757483762691, -26.532721581698841, 0.0 ] } },
{ "type": "Feature", "properties": { "Name": "Granite Belt", "description": null, "timestamp": null, "begin": null, "end": null, "altitudeMode": null, "tessellate": -1, "extrude": -1, "visibility": 0, "drawOrder": null, "icon": null, "folders": "Wine Regions of the World\/\/Asia and Oceania\/\/Wine Regions of Australia\/\/Queensland\/\/" }, "geometry": { "type": "Point", "coordinates": [ 151.89094550655301, -28.637663018744419, 0.0 ] } },
{ "type": "Feature", "properties": { "Name": "High Eden", "description": null, "timestamp": null, "begin": null, "end": null, "altitudeMode": null, "tessellate": -1, "extrude": -1, "visibility": 0, "drawOrder": null, "icon": null, "folders": "Wine Regions of the World\/\/Asia and Oceania\/\/Wine Regions of Australia\/\/South Australia\/\/Barossa\/\/" }, "geometry": { "type": "Point", "coordinates": [ 139.043898096852303, -34.636757044667533, 0.0 ] } },
{ "type": "Feature", "properties": { "Name": "Eden Valley", "description": null, "timestamp": null, "begin": null, "end": null, "altitudeMode": null, "tessellate": -1, "extrude": -1, "visibility": 0, "drawOrder": null, "icon": null, "folders": "Wine Regions of the World\/\/Asia and Oceania\/\/Wine Regions of Australia\/\/South Australia\/\/Barossa\/\/" }, "geometry": { "type": "Point", "coordinates": [ 139.08381991435499, -34.632654003867877, 0.0 ] } },
{ "type": "Feature", "properties": { "Name": "Barossa Valley", "description": null, "timestamp": null, "begin": null, "end": null, "altitudeMode": null, "tessellate": -1, "extrude": -1, "visibility": 0, "drawOrder": null, "icon": null, "folders": "Wine Regions of the World\/\/Asia and Oceania\/\/Wine Regions of Australia\/\/South Australia\/\/Barossa\/\/" }, "geometry": { "type": "Point", "coordinates": [ 138.884070576517189, -34.635164315681401, 0.0 ] } },
{ "type": "Feature", "properties": { "Name": "Far North - Southern Flinders Ranges", "description": null, "timestamp": null, "begin": null, "end": null, "altitudeMode": null, "tessellate": -1, "extrude": -1, "visibility": 0, "drawOrder": null, "icon": null, "folders": "Wine Regions of the World\/\/Asia and Oceania\/\/Wine Regions of Australia\/\/South Australia\/\/" }, "geometry": { "type": "Point", "coordinates": [ 138.262588519437713, -33.07168275204247, 0.0 ] } },
{ "type": "Feature", "properties": { "Name": "Southern Fleurieu", "description": null, "timestamp": null, "begin": null, "end": null, "altitudeMode": null, "tessellate": -1, "extrude": -1, "visibility": 0, "drawOrder": null, "icon": null, "folders": "Wine Regions of the World\/\/Asia and Oceania\/\/Wine Regions of Australia\/\/South Australia\/\/Fleurieu\/\/" }, "geometry": { "type": "Point", "coordinates": [ 138.234172765534709, -35.561966069940453, 0.0 ] } },
{ "type": "Feature", "properties": { "Name": "McLaren Vale", "description": null, "timestamp": null, "begin": null, "end": null, "altitudeMode": null, "tessellate": -1, "extrude": -1, "visibility": 0, "drawOrder": null, "icon": null, "folders": "Wine Regions of the World\/\/Asia and Oceania\/\/Wine Regions of Australia\/\/South Australia\/\/Fleurieu\/\/" }, "geometry": { "type": "Point", "coordinates": [ 138.513672784987904, -35.228798061999207, 0.0 ] } },
{ "type": "Feature", "properties": { "Name": "Langhorne Creek", "description": null, "timestamp": null, "begin": null, "end": null, "altitudeMode": null, "tessellate": -1, "extrude": -1, "visibility": 0, "drawOrder": null, "icon": null, "folders": "Wine Regions of the World\/\/Asia and Oceania\/\/Wine Regions of Australia\/\/South Australia\/\/Fleurieu\/\/" }, "geometry": { "type": "Point", "coordinates": [ 139.025376916530291, -35.292702374419882, 0.0 ] } },
{ "type": "Feature", "properties": { "Name": "Kangaroo Island", "description": null, "timestamp": null, "begin": null, "end": null, "altitudeMode": null, "tessellate": -1, "extrude": -1, "visibility": 0, "drawOrder": null, "icon": null, "folders": "Wine Regions of the World\/\/Asia and Oceania\/\/Wine Regions of Australia\/\/South Australia\/\/Fleurieu\/\/" }, "geometry": { "type": "Point", "coordinates": [ 137.510271549571002, -35.806921014923219, 0.0 ] } },
{ "type": "Feature", "properties": { "Name": "Currency Creek", "description": null, "timestamp": null, "begin": null, "end": null, "altitudeMode": null, "tessellate": -1, "extrude": -1, "visibility": 0, "drawOrder": null, "icon": null, "folders": "Wine Regions of the World\/\/Asia and Oceania\/\/Wine Regions of Australia\/\/South Australia\/\/Fleurieu\/\/" }, "geometry": { "type": "Point", "coordinates": [ 138.819952225053811, -35.449319240611167, 0.0 ] } },
{ "type": "Feature", "properties": { "Name": "Wrattonbully", "description": null, "timestamp": null, "begin": null, "end": null, "altitudeMode": null, "tessellate": -1, "extrude": -1, "visibility": 0, "drawOrder": null, "icon": null, "folders": "Wine Regions of the World\/\/Asia and Oceania\/\/Wine Regions of Australia\/\/South Australia\/\/Limestone Coast\/\/" }, "geometry": { "type": "Point", "coordinates": [ 140.783387107929286, -36.955677945963998, 0.0 ] } },
{ "type": "Feature", "properties": { "Name": "Padthaway", "description": null, "timestamp": null, "begin": null, "end": null, "altitudeMode": null, "tessellate": -1, "extrude": -1, "visibility": 0, "drawOrder": null, "icon": null, "folders": "Wine Regions of the World\/\/Asia and Oceania\/\/Wine Regions of Australia\/\/South Australia\/\/Limestone Coast\/\/" }, "geometry": { "type": "Point", "coordinates": [ 140.566350470606096, -36.68662093370024, 0.0 ] } },
{ "type": "Feature", "properties": { "Name": "Mount Benson", "description": null, "timestamp": null, "begin": null, "end": null, "altitudeMode": null, "tessellate": -1, "extrude": -1, "visibility": 0, "drawOrder": null, "icon": null, "folders": "Wine Regions of the World\/\/Asia and Oceania\/\/Wine Regions of Australia\/\/South Australia\/\/Limestone Coast\/\/" }, "geometry": { "type": "Point", "coordinates": [ 139.763579295126988, -36.967049035916723, 0.0 ] } },
{ "type": "Feature", "properties": { "Name": "Coonawarra", "description": null, "timestamp": null, "begin": null, "end": null, "altitudeMode": null, "tessellate": -1, "extrude": -1, "visibility": 0, "drawOrder": null, "icon": null, "folders": "Wine Regions of the World\/\/Asia and Oceania\/\/Wine Regions of Australia\/\/South Australia\/\/Limestone Coast\/\/" }, "geometry": { "type": "Point", "coordinates": [ 140.837310595255786, -37.315307193046152, 0.0 ] } },
{ "type": "Feature", "properties": { "Name": "Lower Murray - Riverland", "description": null, "timestamp": null, "begin": null, "end": null, "altitudeMode": null, "tessellate": -1, "extrude": -1, "visibility": 0, "drawOrder": null, "icon": null, "folders": "Wine Regions of the World\/\/Asia and Oceania\/\/Wine Regions of Australia\/\/South Australia\/\/" }, "geometry": { "type": "Point", "coordinates": [ 140.600349911720713, -34.413591854434628, 0.0 ] } },
{ "type": "Feature", "properties": { "Name": "Clare Valley", "description": null, "timestamp": null, "begin": null, "end": null, "altitudeMode": null, "tessellate": -1, "extrude": -1, "visibility": 0, "drawOrder": null, "icon": null, "folders": "Wine Regions of the World\/\/Asia and Oceania\/\/Wine Regions of Australia\/\/South Australia\/\/Mount Lofty Ranges\/\/" }, "geometry": { "type": "Point", "coordinates": [ 138.632174412054695, -33.815192328109561, 0.0 ] } },
{ "type": "Feature", "properties": { "Name": "Adelaide Plains", "description": null, "timestamp": null, "begin": null, "end": null, "altitudeMode": null, "tessellate": -1, "extrude": -1, "visibility": 0, "drawOrder": null, "icon": null, "folders": "Wine Regions of the World\/\/Asia and Oceania\/\/Wine Regions of Australia\/\/South Australia\/\/Mount Lofty Ranges\/\/" }, "geometry": { "type": "Point", "coordinates": [ 138.549327199535895, -34.660883914614622, 0.0 ] } },
{ "type": "Feature", "properties": { "Name": "Piccadilly Valley", "description": null, "timestamp": null, "begin": null, "end": null, "altitudeMode": null, "tessellate": -1, "extrude": -1, "visibility": 0, "drawOrder": null, "icon": null, "folders": "Wine Regions of the World\/\/Asia and Oceania\/\/Wine Regions of Australia\/\/South Australia\/\/Mount Lofty Ranges\/\/" }, "geometry": { "type": "Point", "coordinates": [ 138.737831729529489, -34.959262160446883, 0.0 ] } },
{ "type": "Feature", "properties": { "Name": "Lenswood", "description": null, "timestamp": null, "begin": null, "end": null, "altitudeMode": null, "tessellate": -1, "extrude": -1, "visibility": 0, "drawOrder": null, "icon": null, "folders": "Wine Regions of the World\/\/Asia and Oceania\/\/Wine Regions of Australia\/\/South Australia\/\/Mount Lofty Ranges\/\/" }, "geometry": { "type": "Point", "coordinates": [ 138.809157630189389, -34.918676352014373, 0.0 ] } },
{ "type": "Feature", "properties": { "Name": "Adelaide Hills", "description": null, "timestamp": null, "begin": null, "end": null, "altitudeMode": null, "tessellate": -1, "extrude": -1, "visibility": 0, "drawOrder": null, "icon": null, "folders": "Wine Regions of the World\/\/Asia and Oceania\/\/Wine Regions of Australia\/\/South Australia\/\/Mount Lofty Ranges\/\/" }, "geometry": { "type": "Point", "coordinates": [ 138.802066252772704, -35.110938664745582, 0.0 ] } },
{ "type": "Feature", "properties": { "Name": "The Peninsulas", "description": null, "timestamp": null, "begin": null, "end": null, "altitudeMode": null, "tessellate": -1, "extrude": -1, "visibility": 0, "drawOrder": null, "icon": null, "folders": "Wine Regions of the World\/\/Asia and Oceania\/\/Wine Regions of Australia\/\/South Australia\/\/" }, "geometry": { "type": "Point", "coordinates": [ 135.853025965755108, -34.663523974202867, 0.0 ] } },
{ "type": "Feature", "properties": { "Name": "Southern", "description": null, "timestamp": null, "begin": null, "end": null, "altitudeMode": null, "tessellate": -1, "extrude": -1, "visibility": 0, "drawOrder": null, "icon": null, "folders": "Wine Regions of the World\/\/Asia and Oceania\/\/Wine Regions of Australia\/\/Tasmania\/\/" }, "geometry": { "type": "Point", "coordinates": [ 147.233346915157, -43.168449215635881, 0.0 ] } },
{ "type": "Feature", "properties": { "Name": "Derwent Valley", "description": null, "timestamp": null, "begin": null, "end": null, "altitudeMode": null, "tessellate": -1, "extrude": -1, "visibility": 0, "drawOrder": null, "icon": null, "folders": "Wine Regions of the World\/\/Asia and Oceania\/\/Wine Regions of Australia\/\/Tasmania\/\/" }, "geometry": { "type": "Point", "coordinates": [ 147.158676654956309, -42.754796874971468, 0.0 ] } },
{ "type": "Feature", "properties": { "Name": "Coal River", "description": null, "timestamp": null, "begin": null, "end": null, "altitudeMode": null, "tessellate": -1, "extrude": -1, "visibility": 0, "drawOrder": null, "icon": null, "folders": "Wine Regions of the World\/\/Asia and Oceania\/\/Wine Regions of Australia\/\/Tasmania\/\/" }, "geometry": { "type": "Point", "coordinates": [ 147.441341840628013, -42.817960162032449, 0.0 ] } },
{ "type": "Feature", "properties": { "Name": "East Coast", "description": null, "timestamp": null, "begin": null, "end": null, "altitudeMode": null, "tessellate": -1, "extrude": -1, "visibility": 0, "drawOrder": null, "icon": null, "folders": "Wine Regions of the World\/\/Asia and Oceania\/\/Wine Regions of Australia\/\/Tasmania\/\/" }, "geometry": { "type": "Point", "coordinates": [ 148.289591243172794, -41.885668087713782, 0.0 ] } },
{ "type": "Feature", "properties": { "Name": "Pipers River", "description": null, "timestamp": null, "begin": null, "end": null, "altitudeMode": null, "tessellate": -1, "extrude": -1, "visibility": 0, "drawOrder": null, "icon": null, "folders": "Wine Regions of the World\/\/Asia and Oceania\/\/Wine Regions of Australia\/\/Tasmania\/\/" }, "geometry": { "type": "Point", "coordinates": [ 147.184247559013102, -41.060193866803687, 0.0 ] } },
{ "type": "Feature", "properties": { "Name": "North West", "description": null, "timestamp": null, "begin": null, "end": null, "altitudeMode": null, "tessellate": -1, "extrude": -1, "visibility": 0, "drawOrder": null, "icon": null, "folders": "Wine Regions of the World\/\/Asia and Oceania\/\/Wine Regions of Australia\/\/Tasmania\/\/" }, "geometry": { "type": "Point", "coordinates": [ 146.304650515926113, -41.166811426224172, 0.0 ] } },
{ "type": "Feature", "properties": { "Name": "Tamar Valley", "description": null, "timestamp": null, "begin": null, "end": null, "altitudeMode": null, "tessellate": -1, "extrude": -1, "visibility": 0, "drawOrder": null, "icon": null, "folders": "Wine Regions of the World\/\/Asia and Oceania\/\/Wine Regions of Australia\/\/Tasmania\/\/" }, "geometry": { "type": "Point", "coordinates": [ 146.884835461738191, -41.192580634110662, 0.0 ] } },
{ "type": "Feature", "properties": { "Name": "Gippsland", "description": null, "timestamp": null, "begin": null, "end": null, "altitudeMode": null, "tessellate": -1, "extrude": -1, "visibility": 0, "drawOrder": null, "icon": null, "folders": "Wine Regions of the World\/\/Asia and Oceania\/\/Wine Regions of Australia\/\/Victoria\/\/" }, "geometry": { "type": "Point", "coordinates": [ 145.447587368688687, -38.184222789363083, 0.0 ] } },
{ "type": "Feature", "properties": { "Name": "Pyrenees", "description": null, "timestamp": null, "begin": null, "end": null, "altitudeMode": null, "tessellate": -1, "extrude": -1, "visibility": 0, "drawOrder": null, "icon": null, "folders": "Wine Regions of the World\/\/Asia and Oceania\/\/Wine Regions of Australia\/\/Victoria\/\/Western Victoria\/\/" }, "geometry": { "type": "Point", "coordinates": [ 143.286476027094892, -36.964592356236182, 0.0 ] } },
{ "type": "Feature", "properties": { "Name": "Henty", "description": null, "timestamp": null, "begin": null, "end": null, "altitudeMode": null, "tessellate": -1, "extrude": -1, "visibility": 0, "drawOrder": null, "icon": null, "folders": "Wine Regions of the World\/\/Asia and Oceania\/\/Wine Regions of Australia\/\/Victoria\/\/Western Victoria\/\/" }, "geometry": { "type": "Point", "coordinates": [ 142.067222791849787, -37.764895408859893, 0.0 ] } },
{ "type": "Feature", "properties": { "Name": "Grampians", "description": null, "timestamp": null, "begin": null, "end": null, "altitudeMode": null, "tessellate": -1, "extrude": -1, "visibility": 0, "drawOrder": null, "icon": null, "folders": "Wine Regions of the World\/\/Asia and Oceania\/\/Wine Regions of Australia\/\/Victoria\/\/Western Victoria\/\/" }, "geometry": { "type": "Point", "coordinates": [ 142.931034087328499, -37.308311691733998, 0.0 ] } },
{ "type": "Feature", "properties": { "Name": "Yarra Valley", "description": null, "timestamp": null, "begin": null, "end": null, "altitudeMode": null, "tessellate": -1, "extrude": -1, "visibility": 0, "drawOrder": null, "icon": null, "folders": "Wine Regions of the World\/\/Asia and Oceania\/\/Wine Regions of Australia\/\/Victoria\/\/Port Phillip\/\/" }, "geometry": { "type": "Point", "coordinates": [ 145.458714332629, -37.69138031626143, 0.0 ] } },
{ "type": "Feature", "properties": { "Name": "Sunbury", "description": null, "timestamp": null, "begin": null, "end": null, "altitudeMode": null, "tessellate": -1, "extrude": -1, "visibility": 0, "drawOrder": null, "icon": null, "folders": "Wine Regions of the World\/\/Asia and Oceania\/\/Wine Regions of Australia\/\/Victoria\/\/Port Phillip\/\/" }, "geometry": { "type": "Point", "coordinates": [ 144.757473626330608, -37.568741274092133, 0.0 ] } },
{ "type": "Feature", "properties": { "Name": "Mornington Peninsula", "description": null, "timestamp": null, "begin": null, "end": null, "altitudeMode": null, "tessellate": -1, "extrude": -1, "visibility": 0, "drawOrder": null, "icon": null, "folders": "Wine Regions of the World\/\/Asia and Oceania\/\/Wine Regions of Australia\/\/Victoria\/\/Port Phillip\/\/" }, "geometry": { "type": "Point", "coordinates": [ 145.071165016110314, -38.200828060381653, 0.0 ] } },
{ "type": "Feature", "properties": { "Name": "Macedon Ranges", "description": null, "timestamp": null, "begin": null, "end": null, "altitudeMode": null, "tessellate": -1, "extrude": -1, "visibility": 0, "drawOrder": null, "icon": null, "folders": "Wine Regions of the World\/\/Asia and Oceania\/\/Wine Regions of Australia\/\/Victoria\/\/Port Phillip\/\/" }, "geometry": { "type": "Point", "coordinates": [ 144.432826821665287, -37.238909032906562, 0.0 ] } },
{ "type": "Feature", "properties": { "Name": "Geelong", "description": null, "timestamp": null, "begin": null, "end": null, "altitudeMode": null, "tessellate": -1, "extrude": -1, "visibility": 0, "drawOrder": null, "icon": null, "folders": "Wine Regions of the World\/\/Asia and Oceania\/\/Wine Regions of Australia\/\/Victoria\/\/Port Phillip\/\/" }, "geometry": { "type": "Point", "coordinates": [ 144.536104835833811, -38.189829152282243, 0.0 ] } },
{ "type": "Feature", "properties": { "Name": "Rutherglen", "description": null, "timestamp": null, "begin": null, "end": null, "altitudeMode": null, "tessellate": -1, "extrude": -1, "visibility": 0, "drawOrder": null, "icon": null, "folders": "Wine Regions of the World\/\/Asia and Oceania\/\/Wine Regions of Australia\/\/Victoria\/\/Northeast Victoria\/\/" }, "geometry": { "type": "Point", "coordinates": [ 146.423511270754091, -36.06355530465062, 0.0 ] } },
{ "type": "Feature", "properties": { "Name": "Glenrowan", "description": null, "timestamp": null, "begin": null, "end": null, "altitudeMode": null, "tessellate": -1, "extrude": -1, "visibility": 0, "drawOrder": null, "icon": null, "folders": "Wine Regions of the World\/\/Asia and Oceania\/\/Wine Regions of Australia\/\/Victoria\/\/Northeast Victoria\/\/" }, "geometry": { "type": "Point", "coordinates": [ 146.211616796312001, -36.456461226810958, 0.0 ] } },
{ "type": "Feature", "properties": { "Name": "Beechworth", "description": null, "timestamp": null, "begin": null, "end": null, "altitudeMode": null, "tessellate": -1, "extrude": -1, "visibility": 0, "drawOrder": null, "icon": null, "folders": "Wine Regions of the World\/\/Asia and Oceania\/\/Wine Regions of Australia\/\/Victoria\/\/Northeast Victoria\/\/" }, "geometry": { "type": "Point", "coordinates": [ 146.701187689131501, -36.347760661633473, 0.0 ] } },
{ "type": "Feature", "properties": { "Name": "Alpine Valleys", "description": null, "timestamp": null, "begin": null, "end": null, "altitudeMode": null, "tessellate": -1, "extrude": -1, "visibility": 0, "drawOrder": null, "icon": null, "folders": "Wine Regions of the World\/\/Asia and Oceania\/\/Wine Regions of Australia\/\/Victoria\/\/Northeast Victoria\/\/" }, "geometry": { "type": "Point", "coordinates": [ 146.734856512857107, -36.576246153255177, 0.0 ] } },
{ "type": "Feature", "properties": { "Name": "Nagambie Lakes", "description": null, "timestamp": null, "begin": null, "end": null, "altitudeMode": null, "tessellate": -1, "extrude": -1, "visibility": 0, "drawOrder": null, "icon": null, "folders": "Wine Regions of the World\/\/Asia and Oceania\/\/Wine Regions of Australia\/\/Victoria\/\/Central Victoria\/\/" }, "geometry": { "type": "Point", "coordinates": [ 145.099047781937912, -36.808529829042847, 0.0 ] } },
{ "type": "Feature", "properties": { "Name": "Upper Goulburn", "description": null, "timestamp": null, "begin": null, "end": null, "altitudeMode": null, "tessellate": -1, "extrude": -1, "visibility": 0, "drawOrder": null, "icon": null, "folders": "Wine Regions of the World\/\/Asia and Oceania\/\/Wine Regions of Australia\/\/Victoria\/\/Central Victoria\/\/" }, "geometry": { "type": "Point", "coordinates": [ 145.688373951202408, -37.187471135741049, 0.0 ] } },
{ "type": "Feature", "properties": { "Name": "Strathbogie Ranges", "description": null, "timestamp": null, "begin": null, "end": null, "altitudeMode": null, "tessellate": -1, "extrude": -1, "visibility": 0, "drawOrder": null, "icon": null, "folders": "Wine Regions of the World\/\/Asia and Oceania\/\/Wine Regions of Australia\/\/Victoria\/\/Central Victoria\/\/" }, "geometry": { "type": "Point", "coordinates": [ 145.626186844134793, -36.787835028173461, 0.0 ] } },
{ "type": "Feature", "properties": { "Name": "Heathcote", "description": null, "timestamp": null, "begin": null, "end": null, "altitudeMode": null, "tessellate": -1, "extrude": -1, "visibility": 0, "drawOrder": null, "icon": null, "folders": "Wine Regions of the World\/\/Asia and Oceania\/\/Wine Regions of Australia\/\/Victoria\/\/Central Victoria\/\/" }, "geometry": { "type": "Point", "coordinates": [ 144.694006617298186, -36.864806876667693, 0.0 ] } },
{ "type": "Feature", "properties": { "Name": "Goulburn Valley", "description": null, "timestamp": null, "begin": null, "end": null, "altitudeMode": null, "tessellate": -1, "extrude": -1, "visibility": 0, "drawOrder": null, "icon": null, "folders": "Wine Regions of the World\/\/Asia and Oceania\/\/Wine Regions of Australia\/\/Victoria\/\/Central Victoria\/\/" }, "geometry": { "type": "Point", "coordinates": [ 145.378251950580307, -36.273418310585612, 0.0 ] } },
{ "type": "Feature", "properties": { "Name": "Bendigo", "description": null, "timestamp": null, "begin": null, "end": null, "altitudeMode": null, "tessellate": -1, "extrude": -1, "visibility": 0, "drawOrder": null, "icon": null, "folders": "Wine Regions of the World\/\/Asia and Oceania\/\/Wine Regions of Australia\/\/Victoria\/\/Central Victoria\/\/" }, "geometry": { "type": "Point", "coordinates": [ 144.2829463770492, -36.72618399230079, 0.0 ] } },
{ "type": "Feature", "properties": { "Name": "West Australian South East Coastal", "description": null, "timestamp": null, "begin": null, "end": null, "altitudeMode": null, "tessellate": -1, "extrude": -1, "visibility": 0, "drawOrder": null, "icon": null, "folders": "Wine Regions of the World\/\/Asia and Oceania\/\/Wine Regions of Australia\/\/Western Australia\/\/" }, "geometry": { "type": "Point", "coordinates": [ 121.885322307552102, -33.831840173529827, 0.0 ] } },
{ "type": "Feature", "properties": { "Name": "Eastern Plains, Inland and North of Western Australia", "description": null, "timestamp": null, "begin": null, "end": null, "altitudeMode": null, "tessellate": -1, "extrude": -1, "visibility": 0, "drawOrder": null, "icon": null, "folders": "Wine Regions of the World\/\/Asia and Oceania\/\/Wine Regions of Australia\/\/Western Australia\/\/" }, "geometry": { "type": "Point", "coordinates": [ 114.739134202763907, -28.548030365285928, 0.0 ] } },
{ "type": "Feature", "properties": { "Name": "Swan Valley", "description": null, "timestamp": null, "begin": null, "end": null, "altitudeMode": null, "tessellate": -1, "extrude": -1, "visibility": 0, "drawOrder": null, "icon": null, "folders": "Wine Regions of the World\/\/Asia and Oceania\/\/Wine Regions of Australia\/\/Western Australia\/\/Greater Perth\/\/" }, "geometry": { "type": "Point", "coordinates": [ 116.008793296439194, -31.85433239097194, 0.0 ] } },
{ "type": "Feature", "properties": { "Name": "Swan District", "description": null, "timestamp": null, "begin": null, "end": null, "altitudeMode": null, "tessellate": -1, "extrude": -1, "visibility": 0, "drawOrder": null, "icon": null, "folders": "Wine Regions of the World\/\/Asia and Oceania\/\/Wine Regions of Australia\/\/Western Australia\/\/Greater Perth\/\/" }, "geometry": { "type": "Point", "coordinates": [ 115.941572169676803, -31.66145977735772, 0.0 ] } },
{ "type": "Feature", "properties": { "Name": "Perth Hills", "description": null, "timestamp": null, "begin": null, "end": null, "altitudeMode": null, "tessellate": -1, "extrude": -1, "visibility": 0, "drawOrder": null, "icon": null, "folders": "Wine Regions of the World\/\/Asia and Oceania\/\/Wine Regions of Australia\/\/Western Australia\/\/Greater Perth\/\/" }, "geometry": { "type": "Point", "coordinates": [ 116.071107122149996, -32.003444811057193, 0.0 ] } },
{ "type": "Feature", "properties": { "Name": "Peel", "description": null, "timestamp": null, "begin": null, "end": null, "altitudeMode": null, "tessellate": -1, "extrude": -1, "visibility": 0, "drawOrder": null, "icon": null, "folders": "Wine Regions of the World\/\/Asia and Oceania\/\/Wine Regions of Australia\/\/Western Australia\/\/Greater Perth\/\/" }, "geometry": { "type": "Point", "coordinates": [ 115.787184768065103, -32.408560145873622, 0.0 ] } },
{ "type": "Feature", "properties": { "Name": "Margaret River", "description": null, "timestamp": null, "begin": null, "end": null, "altitudeMode": null, "tessellate": -1, "extrude": -1, "visibility": 0, "drawOrder": null, "icon": null, "folders": "Wine Regions of the World\/\/Asia and Oceania\/\/Wine Regions of Australia\/\/Western Australia\/\/South West Australia\/\/" }, "geometry": { "type": "Point", "coordinates": [ 115.210657934426195, -33.752281243445253, 0.0 ] } },
{ "type": "Feature", "properties": { "Name": "Great Southern - Porongurup", "description": null, "timestamp": null, "begin": null, "end": null, "altitudeMode": null, "tessellate": -1, "extrude": -1, "visibility": 0, "drawOrder": null, "icon": null, "folders": "Wine Regions of the World\/\/Asia and Oceania\/\/Wine Regions of Australia\/\/Western Australia\/\/South West Australia\/\/" }, "geometry": { "type": "Point", "coordinates": [ 117.941336574933601, -34.687633509162197, 0.0 ] } },
{ "type": "Feature", "properties": { "Name": "Great Southern - Mount Barker", "description": null, "timestamp": null, "begin": null, "end": null, "altitudeMode": null, "tessellate": -1, "extrude": -1, "visibility": 0, "drawOrder": null, "icon": null, "folders": "Wine Regions of the World\/\/Asia and Oceania\/\/Wine Regions of Australia\/\/Western Australia\/\/South West Australia\/\/" }, "geometry": { "type": "Point", "coordinates": [ 117.635852700409998, -34.638763149436294, 0.0 ] } },
{ "type": "Feature", "properties": { "Name": "Great Southern - Frankland River", "description": null, "timestamp": null, "begin": null, "end": null, "altitudeMode": null, "tessellate": -1, "extrude": -1, "visibility": 0, "drawOrder": null, "icon": null, "folders": "Wine Regions of the World\/\/Asia and Oceania\/\/Wine Regions of Australia\/\/Western Australia\/\/South West Australia\/\/" }, "geometry": { "type": "Point", "coordinates": [ 117.047974865424393, -34.353848401983477, 0.0 ] } },
{ "type": "Feature", "properties": { "Name": "Great Southern - Denmark", "description": null, "timestamp": null, "begin": null, "end": null, "altitudeMode": null, "tessellate": -1, "extrude": -1, "visibility": 0, "drawOrder": null, "icon": null, "folders": "Wine Regions of the World\/\/Asia and Oceania\/\/Wine Regions of Australia\/\/Western Australia\/\/South West Australia\/\/" }, "geometry": { "type": "Point", "coordinates": [ 117.339795270097994, -34.935039628952978, 0.0 ] } },
{ "type": "Feature", "properties": { "Name": "Great Southern - Albany", "description": null, "timestamp": null, "begin": null, "end": null, "altitudeMode": null, "tessellate": -1, "extrude": -1, "visibility": 0, "drawOrder": null, "icon": null, "folders": "Wine Regions of the World\/\/Asia and Oceania\/\/Wine Regions of Australia\/\/Western Australia\/\/South West Australia\/\/" }, "geometry": { "type": "Point", "coordinates": [ 117.819837710418199, -34.976070928366752, 0.0 ] } },
{ "type": "Feature", "properties": { "Name": "Geographe", "description": null, "timestamp": null, "begin": null, "end": null, "altitudeMode": null, "tessellate": -1, "extrude": -1, "visibility": 0, "drawOrder": null, "icon": null, "folders": "Wine Regions of the World\/\/Asia and Oceania\/\/Wine Regions of Australia\/\/Western Australia\/\/South West Australia\/\/" }, "geometry": { "type": "Point", "coordinates": [ 115.8854656933364, -33.065566540349813, 0.0 ] } },
{ "type": "Feature", "properties": { "Name": "Blackwood Valley", "description": null, "timestamp": null, "begin": null, "end": null, "altitudeMode": null, "tessellate": -1, "extrude": -1, "visibility": 0, "drawOrder": null, "icon": null, "folders": "Wine Regions of the World\/\/Asia and Oceania\/\/Wine Regions of Australia\/\/Western Australia\/\/South West Australia\/\/" }, "geometry": { "type": "Point", "coordinates": [ 116.141259242239499, -33.976844428501579, 0.0 ] } },
{ "type": "Feature", "properties": { "Name": "Central Western Australia", "description": null, "timestamp": null, "begin": null, "end": null, "altitudeMode": null, "tessellate": -1, "extrude": -1, "visibility": 0, "drawOrder": null, "icon": null, "folders": "Wine Regions of the World\/\/Asia and Oceania\/\/Wine Regions of Australia\/\/Western Australia\/\/" }, "geometry": { "type": "Point", "coordinates": [ 115.982116635894897, -31.879282261314088, 0.0 ] } },
{ "type": "Feature", "properties": { "Name": "Turpan", "description": null, "timestamp": null, "begin": null, "end": null, "altitudeMode": null, "tessellate": -1, "extrude": -1, "visibility": 0, "drawOrder": null, "icon": null, "folders": "Wine Regions of the World\/\/Asia and Oceania\/\/Wine regions of China\/\/Xinjiang\/\/" }, "geometry": { "type": "Point", "coordinates": [ 89.151024573933881, 42.927776602387617, 0.0 ] } },
{ "type": "Feature", "properties": { "Name": "Lankao", "description": null, "timestamp": null, "begin": null, "end": null, "altitudeMode": null, "tessellate": -1, "extrude": -1, "visibility": 0, "drawOrder": null, "icon": null, "folders": "Wine Regions of the World\/\/Asia and Oceania\/\/Wine regions of China\/\/Yellow River\/\/" }, "geometry": { "type": "Point", "coordinates": [ 114.740563822672101, 34.834132842653922, 0.0 ] } },
{ "type": "Feature", "properties": { "Name": "Himachal", "description": null, "timestamp": null, "begin": null, "end": null, "altitudeMode": null, "tessellate": -1, "extrude": -1, "visibility": 0, "drawOrder": null, "icon": null, "folders": "Wine Regions of the World\/\/Asia and Oceania\/\/Wine regions of India\/\/Himachal Pradesh\/\/" }, "geometry": { "type": "Point", "coordinates": [ 77.145364841967108, 31.116683955136061, 0.0 ] } },
{ "type": "Feature", "properties": { "Name": "Bangalore", "description": null, "timestamp": null, "begin": null, "end": null, "altitudeMode": null, "tessellate": -1, "extrude": -1, "visibility": 0, "drawOrder": null, "icon": null, "folders": "Wine Regions of the World\/\/Asia and Oceania\/\/Wine regions of India\/\/Karnataka State\/\/" }, "geometry": { "type": "Point", "coordinates": [ 77.530486540894941, 13.375202654247889, 0.0 ] } },
{ "type": "Feature", "properties": { "Name": "Shomron", "description": null, "timestamp": null, "begin": null, "end": null, "altitudeMode": null, "tessellate": -1, "extrude": -1, "visibility": 0, "drawOrder": null, "icon": null, "folders": "Wine Regions of the World\/\/Asia and Oceania\/\/Wine Regions of Israel\/\/" }, "geometry": { "type": "Point", "coordinates": [ 34.925275447115709, 32.538387786785187, 0.0 ] } },
{ "type": "Feature", "properties": { "Name": "Galil", "description": null, "timestamp": null, "begin": null, "end": null, "altitudeMode": null, "tessellate": -1, "extrude": -1, "visibility": 0, "drawOrder": null, "icon": null, "folders": "Wine Regions of the World\/\/Asia and Oceania\/\/Wine Regions of Israel\/\/" }, "geometry": { "type": "Point", "coordinates": [ 35.564364148566852, 33.034152087913313, 0.0 ] } },
{ "type": "Feature", "properties": { "Name": "Kofu Valley", "description": null, "timestamp": null, "begin": null, "end": null, "altitudeMode": null, "tessellate": -1, "extrude": -1, "visibility": 0, "drawOrder": null, "icon": null, "folders": "Wine Regions of the World\/\/Asia and Oceania\/\/Wine regions of Japan\/\/" }, "geometry": { "type": "Point", "coordinates": [ 138.722342454344187, 35.726178536016263, 0.0 ] } },
{ "type": "Feature", "properties": { "Name": "Bekaa Valley", "description": null, "timestamp": null, "begin": null, "end": null, "altitudeMode": null, "tessellate": -1, "extrude": -1, "visibility": 0, "drawOrder": null, "icon": null, "folders": "Wine Regions of the World\/\/Asia and Oceania\/\/Wine Regions of Lebanon\/\/" }, "geometry": { "type": "Point", "coordinates": [ 35.941475080146787, 33.833273464347357, 0.0 ] } },
{ "type": "Feature", "properties": { "Name": "Central Otago", "description": null, "timestamp": null, "begin": null, "end": null, "altitudeMode": null, "tessellate": -1, "extrude": -1, "visibility": 0, "drawOrder": null, "icon": null, "folders": "Wine Regions of the World\/\/Asia and Oceania\/\/Wine Regions of New Zealand\/\/" }, "geometry": { "type": "Point", "coordinates": [ 169.376509939585702, -45.237283881017547, 0.0 ] } },
{ "type": "Feature", "properties": { "Name": "Marlborough", "description": null, "timestamp": null, "begin": null, "end": null, "altitudeMode": null, "tessellate": -1, "extrude": -1, "visibility": 0, "drawOrder": null, "icon": null, "folders": "Wine Regions of the World\/\/Asia and Oceania\/\/Wine Regions of New Zealand\/\/" }, "geometry": { "type": "Point", "coordinates": [ 173.917545492357505, -41.512234904861629, 0.0 ] } },
{ "type": "Feature", "properties": { "Name": "Diyarbakir", "description": null, "timestamp": null, "begin": null, "end": null, "altitudeMode": null, "tessellate": -1, "extrude": -1, "visibility": 0, "drawOrder": null, "icon": null, "folders": "Wine Regions of the World\/\/Asia and Oceania\/\/Wine Regions of Turkey\/\/" }, "geometry": { "type": "Point", "coordinates": [ 40.243654482419522, 37.877049173387853, 0.0 ] } },
{ "type": "Feature", "properties": { "Name": "Murefte", "description": null, "timestamp": null, "begin": null, "end": null, "altitudeMode": null, "tessellate": -1, "extrude": -1, "visibility": 0, "drawOrder": null, "icon": null, "folders": "Wine Regions of the World\/\/Asia and Oceania\/\/Wine Regions of Turkey\/\/" }, "geometry": { "type": "Point", "coordinates": [ 27.253760690778961, 40.680789529114833, 0.0 ] } },
{ "type": "Feature", "properties": { "Name": "Wachau", "description": null, "timestamp": null, "begin": null, "end": null, "altitudeMode": null, "tessellate": -1, "extrude": -1, "visibility": 0, "drawOrder": null, "icon": null, "folders": "Wine Regions of the World\/\/Europe\/\/Wine Regions of Austria\/\/" }, "geometry": { "type": "Point", "coordinates": [ 15.47098180570076, 48.398838776814067, 0.0 ] } },
{ "type": "Feature", "properties": { "Name": "Wien", "description": null, "timestamp": null, "begin": null, "end": null, "altitudeMode": null, "tessellate": -1, "extrude": -1, "visibility": 0, "drawOrder": null, "icon": null, "folders": "Wine Regions of the World\/\/Europe\/\/Wine Regions of Austria\/\/" }, "geometry": { "type": "Point", "coordinates": [ 16.330843388579598, 48.25527924293926, 0.0 ] } },
{ "type": "Feature", "properties": { "Name": "GOP Haspengouwse Wijn", "description": null, "timestamp": null, "begin": null, "end": null, "altitudeMode": null, "tessellate": -1, "extrude": -1, "visibility": 0, "drawOrder": null, "icon": null, "folders": "Wine Regions of the World\/\/Europe\/\/Wine regions of Belgium\/\/" }, "geometry": { "type": "Point", "coordinates": [ 5.364952906930924, 50.859322175648252, 0.0 ] } },
{ "type": "Feature", "properties": { "Name": "GOP Hagelandse Wijn", "description": null, "timestamp": null, "begin": null, "end": null, "altitudeMode": null, "tessellate": -1, "extrude": -1, "visibility": 0, "drawOrder": null, "icon": null, "folders": "Wine Regions of the World\/\/Europe\/\/Wine regions of Belgium\/\/" }, "geometry": { "type": "Point", "coordinates": [ 4.828573344706882, 50.884381937326573, 0.0 ] } },
{ "type": "Feature", "properties": { "Name": "CONTROLIRAN Harsovo", "description": null, "timestamp": null, "begin": null, "end": null, "altitudeMode": null, "tessellate": -1, "extrude": -1, "visibility": 0, "drawOrder": null, "icon": null, "folders": "Wine Regions of the World\/\/Europe\/\/Wine Regions of Bulgaria\/\/Struma Valley (Southwestern)\/\/" }, "geometry": { "type": "Point", "coordinates": [ 23.2517420601956, 41.572698815065444, 0.0 ] } },
{ "type": "Feature", "properties": { "Name": "CONTROLIRAN Brestnik", "description": null, "timestamp": null, "begin": null, "end": null, "altitudeMode": null, "tessellate": -1, "extrude": -1, "visibility": 0, "drawOrder": null, "icon": null, "folders": "Wine Regions of the World\/\/Europe\/\/Wine Regions of Bulgaria\/\/Thracian Valley (Southern)\/\/" }, "geometry": { "type": "Point", "coordinates": [ 24.77246552998875, 42.072304179481229, 0.0 ] } },
{ "type": "Feature", "properties": { "Name": "CONTROLIRAN Assenovgrad", "description": null, "timestamp": null, "begin": null, "end": null, "altitudeMode": null, "tessellate": -1, "extrude": -1, "visibility": 0, "drawOrder": null, "icon": null, "folders": "Wine Regions of the World\/\/Europe\/\/Wine Regions of Bulgaria\/\/Thracian Valley (Southern)\/\/" }, "geometry": { "type": "Point", "coordinates": [ 24.898642396727929, 42.002976772580901, 0.0 ] } },
{ "type": "Feature", "properties": { "Name": "CONTROLIRAN Stambolovo", "description": null, "timestamp": null, "begin": null, "end": null, "altitudeMode": null, "tessellate": -1, "extrude": -1, "visibility": 0, "drawOrder": null, "icon": null, "folders": "Wine Regions of the World\/\/Europe\/\/Wine Regions of Bulgaria\/\/Thracian Valley (Southern)\/\/" }, "geometry": { "type": "Point", "coordinates": [ 25.6178340303955, 41.799582328929233, 0.0 ] } },
{ "type": "Feature", "properties": { "Name": "CONTROLIRAN Sakar", "description": null, "timestamp": null, "begin": null, "end": null, "altitudeMode": null, "tessellate": -1, "extrude": -1, "visibility": 0, "drawOrder": null, "icon": null, "folders": "Wine Regions of the World\/\/Europe\/\/Wine Regions of Bulgaria\/\/Thracian Valley (Southern)\/\/" }, "geometry": { "type": "Point", "coordinates": [ 25.964298646369159, 41.77472193179397, 0.0 ] } },
{ "type": "Feature", "properties": { "Name": "CONTROLIRAN Oriachovitza", "description": null, "timestamp": null, "begin": null, "end": null, "altitudeMode": null, "tessellate": -1, "extrude": -1, "visibility": 0, "drawOrder": null, "icon": null, "folders": "Wine Regions of the World\/\/Europe\/\/Wine Regions of Bulgaria\/\/Thracian Valley (Southern)\/\/" }, "geometry": { "type": "Point", "coordinates": [ 25.66049921051377, 42.455193177686191, 0.0 ] } },
{ "type": "Feature", "properties": { "Name": "CONTROLIRAN Rozova Dolina", "description": null, "timestamp": null, "begin": null, "end": null, "altitudeMode": null, "tessellate": -1, "extrude": -1, "visibility": 0, "drawOrder": null, "icon": null, "folders": "Wine Regions of the World\/\/Europe\/\/Wine Regions of Bulgaria\/\/The Valley of the Roses (Sub-Balkan)\/\/" }, "geometry": { "type": "Point", "coordinates": [ 24.72027156022077, 42.510432703296551, 0.0 ] } },
{ "type": "Feature", "properties": { "Name": "CONTROLIRAN Sungurlare", "description": null, "timestamp": null, "begin": null, "end": null, "altitudeMode": null, "tessellate": -1, "extrude": -1, "visibility": 0, "drawOrder": null, "icon": null, "folders": "Wine Regions of the World\/\/Europe\/\/Wine Regions of Bulgaria\/\/The Valley of the Roses (Sub-Balkan)\/\/" }, "geometry": { "type": "Point", "coordinates": [ 26.757889485797861, 42.76437637113029, 0.0 ] } },
{ "type": "Feature", "properties": { "Name": "CONTROLIRAN Iujen Briag", "description": null, "timestamp": null, "begin": null, "end": null, "altitudeMode": null, "tessellate": -1, "extrude": -1, "visibility": 0, "drawOrder": null, "icon": null, "folders": "Wine Regions of the World\/\/Europe\/\/Wine Regions of Bulgaria\/\/Black Sea Coastal (Eastern)\/\/" }, "geometry": { "type": "Point", "coordinates": [ 27.35271425022421, 42.468605960649931, 0.0 ] } },
{ "type": "Feature", "properties": { "Name": "CONTROLIRAN Varna", "description": null, "timestamp": null, "begin": null, "end": null, "altitudeMode": null, "tessellate": -1, "extrude": -1, "visibility": 0, "drawOrder": null, "icon": null, "folders": "Wine Regions of the World\/\/Europe\/\/Wine Regions of Bulgaria\/\/Black Sea Coastal (Eastern)\/\/" }, "geometry": { "type": "Point", "coordinates": [ 27.858502727492819, 43.231581386981503, 0.0 ] } },
{ "type": "Feature", "properties": { "Name": "CONTROLIRAN Novi Pazar", "description": null, "timestamp": null, "begin": null, "end": null, "altitudeMode": null, "tessellate": -1, "extrude": -1, "visibility": 0, "drawOrder": null, "icon": null, "folders": "Wine Regions of the World\/\/Europe\/\/Wine Regions of Bulgaria\/\/Black Sea Coastal (Eastern)\/\/" }, "geometry": { "type": "Point", "coordinates": [ 27.224072717784448, 43.340271924209993, 0.0 ] } },
{ "type": "Feature", "properties": { "Name": "CONTROLIRAN Khan Krum", "description": null, "timestamp": null, "begin": null, "end": null, "altitudeMode": null, "tessellate": -1, "extrude": -1, "visibility": 0, "drawOrder": null, "icon": null, "folders": "Wine Regions of the World\/\/Europe\/\/Wine Regions of Bulgaria\/\/Black Sea Coastal (Eastern)\/\/" }, "geometry": { "type": "Point", "coordinates": [ 26.783953052732219, 43.292419251792872, 0.0 ] } },
{ "type": "Feature", "properties": { "Name": "CONTROLIRAN Kralevo", "description": null, "timestamp": null, "begin": null, "end": null, "altitudeMode": null, "tessellate": -1, "extrude": -1, "visibility": 0, "drawOrder": null, "icon": null, "folders": "Wine Regions of the World\/\/Europe\/\/Wine Regions of Bulgaria\/\/Black Sea Coastal (Eastern)\/\/" }, "geometry": { "type": "Point", "coordinates": [ 26.682325515954009, 43.190395399279069, 0.0 ] } },
{ "type": "Feature", "properties": { "Name": "CONTROLIRAN Novo Selo", "description": null, "timestamp": null, "begin": null, "end": null, "altitudeMode": null, "tessellate": -1, "extrude": -1, "visibility": 0, "drawOrder": null, "icon": null, "folders": "Wine Regions of the World\/\/Europe\/\/Wine Regions of Bulgaria\/\/Black Sea Coastal (Eastern)\/\/" }, "geometry": { "type": "Point", "coordinates": [ 26.19265683196058, 43.796168733057897, 0.0 ] } },
{ "type": "Feature", "properties": { "Name": "CONTROLIRAN Russenski Briag", "description": null, "timestamp": null, "begin": null, "end": null, "altitudeMode": null, "tessellate": -1, "extrude": -1, "visibility": 0, "drawOrder": null, "icon": null, "folders": "Wine Regions of the World\/\/Europe\/\/Wine Regions of Bulgaria\/\/Danube River Plains (Northern)\/\/" }, "geometry": { "type": "Point", "coordinates": [ 25.976543912817181, 43.796908675531732, 0.0 ] } },
{ "type": "Feature", "properties": { "Name": "CONTROLIRAN Liaskovetz", "description": null, "timestamp": null, "begin": null, "end": null, "altitudeMode": null, "tessellate": -1, "extrude": -1, "visibility": 0, "drawOrder": null, "icon": null, "folders": "Wine Regions of the World\/\/Europe\/\/Wine Regions of Bulgaria\/\/Danube River Plains (Northern)\/\/" }, "geometry": { "type": "Point", "coordinates": [ 25.697034799661939, 43.112539578943917, 0.0 ] } },
{ "type": "Feature", "properties": { "Name": "CONTROLIRAN Svishtov", "description": null, "timestamp": null, "begin": null, "end": null, "altitudeMode": null, "tessellate": -1, "extrude": -1, "visibility": 0, "drawOrder": null, "icon": null, "folders": "Wine Regions of the World\/\/Europe\/\/Wine Regions of Bulgaria\/\/Danube River Plains (Northern)\/\/" }, "geometry": { "type": "Point", "coordinates": [ 25.329619570453101, 43.579400457059457, 0.0 ] } },
{ "type": "Feature", "properties": { "Name": "CONTROLIRAN Suhindol", "description": null, "timestamp": null, "begin": null, "end": null, "altitudeMode": null, "tessellate": -1, "extrude": -1, "visibility": 0, "drawOrder": null, "icon": null, "folders": "Wine Regions of the World\/\/Europe\/\/Wine Regions of Bulgaria\/\/Danube River Plains (Northern)\/\/" }, "geometry": { "type": "Point", "coordinates": [ 25.167866672851829, 43.172572994891468, 0.0 ] } },
{ "type": "Feature", "properties": { "Name": "CONTROLIRAN Pavlikeni", "description": null, "timestamp": null, "begin": null, "end": null, "altitudeMode": null, "tessellate": -1, "extrude": -1, "visibility": 0, "drawOrder": null, "icon": null, "folders": "Wine Regions of the World\/\/Europe\/\/Wine Regions of Bulgaria\/\/Danube River Plains (Northern)\/\/" }, "geometry": { "type": "Point", "coordinates": [ 25.354221167965878, 43.225574734191333, 0.0 ] } },
{ "type": "Feature", "properties": { "Name": "CONTROLIRAN Lositza", "description": null, "timestamp": null, "begin": null, "end": null, "altitudeMode": null, "tessellate": -1, "extrude": -1, "visibility": 0, "drawOrder": null, "icon": null, "folders": "Wine Regions of the World\/\/Europe\/\/Wine Regions of Bulgaria\/\/Danube River Plains (Northern)\/\/" }, "geometry": { "type": "Point", "coordinates": [ 24.821721497437299, 43.559245129577512, 0.0 ] } },
{ "type": "Feature", "properties": { "Name": "Srednja i Juna Dalmacija", "description": null, "timestamp": null, "begin": null, "end": null, "altitudeMode": null, "tessellate": -1, "extrude": -1, "visibility": 0, "drawOrder": null, "icon": null, "folders": "Wine Regions of the World\/\/Europe\/\/Wine Regions of Croatia\/\/Primorska Hrvatska\/\/" }, "geometry": { "type": "Point", "coordinates": [ 17.996772539309081, 42.725901659642027, 0.0 ] } },
{ "type": "Feature", "properties": { "Name": "Dalmatinska zagora", "description": null, "timestamp": null, "begin": null, "end": null, "altitudeMode": null, "tessellate": -1, "extrude": -1, "visibility": 0, "drawOrder": null, "icon": null, "folders": "Wine Regions of the World\/\/Europe\/\/Wine Regions of Croatia\/\/Primorska Hrvatska\/\/" }, "geometry": { "type": "Point", "coordinates": [ 16.70425551530899, 43.673042977334873, 0.0 ] } },
{ "type": "Feature", "properties": { "Name": "Hrvatsko primorje", "description": null, "timestamp": null, "begin": null, "end": null, "altitudeMode": null, "tessellate": -1, "extrude": -1, "visibility": 0, "drawOrder": null, "icon": null, "folders": "Wine Regions of the World\/\/Europe\/\/Wine Regions of Croatia\/\/Primorska Hrvatska\/\/" }, "geometry": { "type": "Point", "coordinates": [ 14.463278028750601, 45.079577019775698, 0.0 ] } },
{ "type": "Feature", "properties": { "Name": "Istra", "description": null, "timestamp": null, "begin": null, "end": null, "altitudeMode": null, "tessellate": -1, "extrude": -1, "visibility": 0, "drawOrder": null, "icon": null, "folders": "Wine Regions of the World\/\/Europe\/\/Wine Regions of Croatia\/\/Primorska Hrvatska\/\/" }, "geometry": { "type": "Point", "coordinates": [ 13.62345105940533, 45.271856218797062, 0.0 ] } },
{ "type": "Feature", "properties": { "Name": "Sjeverna Dalmacija", "description": null, "timestamp": null, "begin": null, "end": null, "altitudeMode": null, "tessellate": -1, "extrude": -1, "visibility": 0, "drawOrder": null, "icon": null, "folders": "Wine Regions of the World\/\/Europe\/\/Wine Regions of Croatia\/\/Primorska Hrvatska\/\/" }, "geometry": { "type": "Point", "coordinates": [ 15.24987814121708, 44.135274266534609, 0.0 ] } },
{ "type": "Feature", "properties": { "Name": "Zagorje-Meimurje", "description": null, "timestamp": null, "begin": null, "end": null, "altitudeMode": null, "tessellate": -1, "extrude": -1, "visibility": 0, "drawOrder": null, "icon": null, "folders": "Wine Regions of the World\/\/Europe\/\/Wine Regions of Croatia\/\/Kontinentalna Hrvatska\/\/" }, "geometry": { "type": "Point", "coordinates": [ 16.337760495106949, 46.268456781062298, 0.0 ] } },
{ "type": "Feature", "properties": { "Name": "Pleivica", "description": null, "timestamp": null, "begin": null, "end": null, "altitudeMode": null, "tessellate": -1, "extrude": -1, "visibility": 0, "drawOrder": null, "icon": null, "folders": "Wine Regions of the World\/\/Europe\/\/Wine Regions of Croatia\/\/Kontinentalna Hrvatska\/\/" }, "geometry": { "type": "Point", "coordinates": [ 15.718432213242419, 45.8126200806852, 0.0 ] } },
{ "type": "Feature", "properties": { "Name": "Pokuplje", "description": null, "timestamp": null, "begin": null, "end": null, "altitudeMode": null, "tessellate": -1, "extrude": -1, "visibility": 0, "drawOrder": null, "icon": null, "folders": "Wine Regions of the World\/\/Europe\/\/Wine Regions of Croatia\/\/Kontinentalna Hrvatska\/\/" }, "geometry": { "type": "Point", "coordinates": [ 16.097912274757601, 45.682121061532023, 0.0 ] } },
{ "type": "Feature", "properties": { "Name": "Prigorje - Bilogora", "description": null, "timestamp": null, "begin": null, "end": null, "altitudeMode": null, "tessellate": -1, "extrude": -1, "visibility": 0, "drawOrder": null, "icon": null, "folders": "Wine Regions of the World\/\/Europe\/\/Wine Regions of Croatia\/\/Kontinentalna Hrvatska\/\/" }, "geometry": { "type": "Point", "coordinates": [ 16.836857650690948, 45.947807648616283, 0.0 ] } },
{ "type": "Feature", "properties": { "Name": "Slavonija", "description": null, "timestamp": null, "begin": null, "end": null, "altitudeMode": null, "tessellate": -1, "extrude": -1, "visibility": 0, "drawOrder": null, "icon": null, "folders": "Wine Regions of the World\/\/Europe\/\/Wine Regions of Croatia\/\/Kontinentalna Hrvatska\/\/" }, "geometry": { "type": "Point", "coordinates": [ 17.69208622219476, 45.350630393849762, 0.0 ] } },
{ "type": "Feature", "properties": { "Name": "Podunavlje", "description": null, "timestamp": null, "begin": null, "end": null, "altitudeMode": null, "tessellate": -1, "extrude": -1, "visibility": 0, "drawOrder": null, "icon": null, "folders": "Wine Regions of the World\/\/Europe\/\/Wine Regions of Croatia\/\/Kontinentalna Hrvatska\/\/" }, "geometry": { "type": "Point", "coordinates": [ 18.976690532383969, 45.295470020006043, 0.0 ] } },
{ "type": "Feature", "properties": { "Name": "Moslavina", "description": null, "timestamp": null, "begin": null, "end": null, "altitudeMode": null, "tessellate": -1, "extrude": -1, "visibility": 0, "drawOrder": null, "icon": null, "folders": "Wine Regions of the World\/\/Europe\/\/Wine Regions of Croatia\/\/Kontinentalna Hrvatska\/\/" }, "geometry": { "type": "Point", "coordinates": [ 16.63524832892956, 45.738633266346362, 0.0 ] } },
{ "type": "Feature", "properties": { "Name": "Lemesos", "description": null, "timestamp": null, "begin": null, "end": null, "altitudeMode": null, "tessellate": -1, "extrude": -1, "visibility": 0, "drawOrder": null, "icon": null, "folders": "Wine Regions of the World\/\/Europe\/\/Wine Regions of Cyprus\/\/" }, "geometry": { "type": "Point", "coordinates": [ 32.977260042714953, 34.695026637385247, 0.0 ] } },
{ "type": "Feature", "properties": { "Name": "Lefkosia", "description": null, "timestamp": null, "begin": null, "end": null, "altitudeMode": null, "tessellate": -1, "extrude": -1, "visibility": 0, "drawOrder": null, "icon": null, "folders": "Wine Regions of the World\/\/Europe\/\/Wine Regions of Cyprus\/\/" }, "geometry": { "type": "Point", "coordinates": [ 33.329547922315129, 35.185244703344502, 0.0 ] } },
{ "type": "Feature", "properties": { "Name": "VP Slovck", "description": null, "timestamp": null, "begin": null, "end": null, "altitudeMode": null, "tessellate": -1, "extrude": -1, "visibility": 0, "drawOrder": null, "icon": null, "folders": "Wine Regions of the World\/\/Europe\/\/Wine regions of Czech Republic\/\/Vinarsk oblast Morava\/\/" }, "geometry": { "type": "Point", "coordinates": [ 17.000313381974721, 48.730904916143267, 0.0 ] } },
{ "type": "Feature", "properties": { "Name": "VP Velkopavlovick", "description": null, "timestamp": null, "begin": null, "end": null, "altitudeMode": null, "tessellate": -1, "extrude": -1, "visibility": 0, "drawOrder": null, "icon": null, "folders": "Wine Regions of the World\/\/Europe\/\/Wine regions of Czech Republic\/\/Vinarsk oblast Morava\/\/" }, "geometry": { "type": "Point", "coordinates": [ 16.788576220920561, 49.048167188651192, 0.0 ] } },
{ "type": "Feature", "properties": { "Name": "VP Mikulovsk", "description": null, "timestamp": null, "begin": null, "end": null, "altitudeMode": null, "tessellate": -1, "extrude": -1, "visibility": 0, "drawOrder": null, "icon": null, "folders": "Wine Regions of the World\/\/Europe\/\/Wine regions of Czech Republic\/\/Vinarsk oblast Morava\/\/" }, "geometry": { "type": "Point", "coordinates": [ 16.572168444032378, 48.80365332736848, 0.0 ] } },
{ "type": "Feature", "properties": { "Name": "VP Znojemsk", "description": null, "timestamp": null, "begin": null, "end": null, "altitudeMode": null, "tessellate": -1, "extrude": -1, "visibility": 0, "drawOrder": null, "icon": null, "folders": "Wine Regions of the World\/\/Europe\/\/Wine regions of Czech Republic\/\/Vinarsk oblast Morava\/\/" }, "geometry": { "type": "Point", "coordinates": [ 16.375720352281991, 48.777099250426943, 0.0 ] } },
{ "type": "Feature", "properties": { "Name": "VP Litomick", "description": null, "timestamp": null, "begin": null, "end": null, "altitudeMode": null, "tessellate": -1, "extrude": -1, "visibility": 0, "drawOrder": null, "icon": null, "folders": "Wine Regions of the World\/\/Europe\/\/Wine regions of Czech Republic\/\/Vinarsk oblast Cchy\/\/" }, "geometry": { "type": "Point", "coordinates": [ 14.11563264790523, 50.517969631285453, 0.0 ] } },
{ "type": "Feature", "properties": { "Name": "VP Mlnick", "description": null, "timestamp": null, "begin": null, "end": null, "altitudeMode": null, "tessellate": -1, "extrude": -1, "visibility": 0, "drawOrder": null, "icon": null, "folders": "Wine Regions of the World\/\/Europe\/\/Wine regions of Czech Republic\/\/Vinarsk oblast Cchy\/\/" }, "geometry": { "type": "Point", "coordinates": [ 14.48641739535201, 50.284268103762727, 0.0 ] } },
{ "type": "Feature", "properties": { "Name": "Gevgelija", "description": null, "timestamp": null, "begin": null, "end": null, "altitudeMode": null, "tessellate": -1, "extrude": -1, "visibility": 0, "drawOrder": null, "icon": null, "folders": "Wine Regions of the World\/\/Europe\/\/Wine Regions of FYRO Macedonia\/\/" }, "geometry": { "type": "Point", "coordinates": [ 22.511215634022719, 41.174967720109677, 0.0 ] } },
{ "type": "Feature", "properties": { "Name": "Tikves", "description": null, "timestamp": null, "begin": null, "end": null, "altitudeMode": null, "tessellate": -1, "extrude": -1, "visibility": 0, "drawOrder": null, "icon": null, "folders": "Wine Regions of the World\/\/Europe\/\/Wine Regions of FYRO Macedonia\/\/" }, "geometry": { "type": "Point", "coordinates": [ 22.007708277326191, 41.452690515038483, 0.0 ] } },
{ "type": "Feature", "properties": { "Name": "AOC Alsace", "description": null, "timestamp": null, "begin": null, "end": null, "altitudeMode": null, "tessellate": -1, "extrude": -1, "visibility": 0, "drawOrder": null, "icon": null, "folders": "Wine Regions of the World\/\/Europe\/\/Wine Regions of France\/\/" }, "geometry": { "type": "Point", "coordinates": [ 7.65924575839081, 48.66041665081331, 0.0 ] } },
{ "type": "Feature", "properties": { "Name": "AOC Champagne", "description": null, "timestamp": null, "begin": null, "end": null, "altitudeMode": null, "tessellate": -1, "extrude": -1, "visibility": 0, "drawOrder": null, "icon": null, "folders": "Wine Regions of the World\/\/Europe\/\/Wine Regions of France\/\/" }, "geometry": { "type": "Point", "coordinates": [ 4.003005551108324, 49.154783042268839, 0.0 ] } },
{ "type": "Feature", "properties": { "Name": "AOC Ctes de Toul", "description": null, "timestamp": null, "begin": null, "end": null, "altitudeMode": null, "tessellate": -1, "extrude": -1, "visibility": 0, "drawOrder": null, "icon": null, "folders": "Wine Regions of the World\/\/Europe\/\/Wine Regions of France\/\/" }, "geometry": { "type": "Point", "coordinates": [ 5.881205628481412, 48.686722060649132, 0.0 ] } },
{ "type": "Feature", "properties": { "Name": "AOC Pineau des Charentes", "description": null, "timestamp": null, "begin": null, "end": null, "altitudeMode": null, "tessellate": -1, "extrude": -1, "visibility": 0, "drawOrder": null, "icon": null, "folders": "Wine Regions of the World\/\/Europe\/\/Wine Regions of France\/\/" }, "geometry": { "type": "Point", "coordinates": [ -0.522184443488129, 45.322875283742754, 0.0 ] } },
{ "type": "Feature", "properties": { "Name": "AOC Ros des Riceys", "description": null, "timestamp": null, "begin": null, "end": null, "altitudeMode": null, "tessellate": -1, "extrude": -1, "visibility": 0, "drawOrder": null, "icon": null, "folders": "Wine Regions of the World\/\/Europe\/\/Wine Regions of France\/\/" }, "geometry": { "type": "Point", "coordinates": [ 4.370713480581088, 47.98064677028222, 0.0 ] } },
{ "type": "Feature", "properties": { "Name": "AOC Bugey", "description": null, "timestamp": null, "begin": null, "end": null, "altitudeMode": null, "tessellate": -1, "extrude": -1, "visibility": 0, "drawOrder": null, "icon": null, "folders": "Wine Regions of the World\/\/Europe\/\/Wine Regions of France\/\/Savoie\/\/" }, "geometry": { "type": "Point", "coordinates": [ 5.709459459670144, 45.764468762572371, 0.0 ] } },
{ "type": "Feature", "properties": { "Name": "AOC Crpy", "description": null, "timestamp": null, "begin": null, "end": null, "altitudeMode": null, "tessellate": -1, "extrude": -1, "visibility": 0, "drawOrder": null, "icon": null, "folders": "Wine Regions of the World\/\/Europe\/\/Wine Regions of France\/\/Savoie\/\/" }, "geometry": { "type": "Point", "coordinates": [ 6.319411169117089, 46.295409776708027, 0.0 ] } },
{ "type": "Feature", "properties": { "Name": "AOC Roussette du Bugey", "description": null, "timestamp": null, "begin": null, "end": null, "altitudeMode": null, "tessellate": -1, "extrude": -1, "visibility": 0, "drawOrder": null, "icon": null, "folders": "Wine Regions of the World\/\/Europe\/\/Wine Regions of France\/\/Savoie\/\/" }, "geometry": { "type": "Point", "coordinates": [ 5.277542722916067, 46.162851924260423, 0.0 ] } },
{ "type": "Feature", "properties": { "Name": "AOC Roussette de Savoie", "description": null, "timestamp": null, "begin": null, "end": null, "altitudeMode": null, "tessellate": -1, "extrude": -1, "visibility": 0, "drawOrder": null, "icon": null, "folders": "Wine Regions of the World\/\/Europe\/\/Wine Regions of France\/\/Savoie\/\/" }, "geometry": { "type": "Point", "coordinates": [ 6.13634709926484, 45.560381832761173, 0.0 ] } },
{ "type": "Feature", "properties": { "Name": "AOC Seyssel", "description": null, "timestamp": null, "begin": null, "end": null, "altitudeMode": null, "tessellate": -1, "extrude": -1, "visibility": 0, "drawOrder": null, "icon": null, "folders": "Wine Regions of the World\/\/Europe\/\/Wine Regions of France\/\/Savoie\/\/" }, "geometry": { "type": "Point", "coordinates": [ 5.829018341765462, 45.987569488026161, 0.0 ] } },
{ "type": "Feature", "properties": { "Name": "AOC Vin de Savoie", "description": null, "timestamp": null, "begin": null, "end": null, "altitudeMode": null, "tessellate": -1, "extrude": -1, "visibility": 0, "drawOrder": null, "icon": null, "folders": "Wine Regions of the World\/\/Europe\/\/Wine Regions of France\/\/Savoie\/\/" }, "geometry": { "type": "Point", "coordinates": [ 6.001950127875945, 45.468369712870768, 0.0 ] } },
{ "type": "Feature", "properties": { "Name": "AOC Vin de Savoie-Ayze", "description": null, "timestamp": null, "begin": null, "end": null, "altitudeMode": null, "tessellate": -1, "extrude": -1, "visibility": 0, "drawOrder": null, "icon": null, "folders": "Wine Regions of the World\/\/Europe\/\/Wine Regions of France\/\/Savoie\/\/" }, "geometry": { "type": "Point", "coordinates": [ 6.43426667510812, 46.085798048332549, 0.0 ] } },
{ "type": "Feature", "properties": { "Name": "AOC Arbois", "description": null, "timestamp": null, "begin": null, "end": null, "altitudeMode": null, "tessellate": -1, "extrude": -1, "visibility": 0, "drawOrder": null, "icon": null, "folders": "Wine Regions of the World\/\/Europe\/\/Wine Regions of France\/\/Jura\/\/" }, "geometry": { "type": "Point", "coordinates": [ 5.774440610343092, 46.916801018518839, 0.0 ] } },
{ "type": "Feature", "properties": { "Name": "AOC Arbois-Pupillin", "description": null, "timestamp": null, "begin": null, "end": null, "altitudeMode": null, "tessellate": -1, "extrude": -1, "visibility": 0, "drawOrder": null, "icon": null, "folders": "Wine Regions of the World\/\/Europe\/\/Wine Regions of France\/\/Jura\/\/" }, "geometry": { "type": "Point", "coordinates": [ 5.746989830200761, 46.889242084994088, 0.0 ] } },
{ "type": "Feature", "properties": { "Name": "AOC Chateau-Chalon", "description": null, "timestamp": null, "begin": null, "end": null, "altitudeMode": null, "tessellate": -1, "extrude": -1, "visibility": 0, "drawOrder": null, "icon": null, "folders": "Wine Regions of the World\/\/Europe\/\/Wine Regions of France\/\/Jura\/\/" }, "geometry": { "type": "Point", "coordinates": [ 5.616245316811316, 46.764848572696359, 0.0 ] } },
{ "type": "Feature", "properties": { "Name": "AOC Ctes du Jura", "description": null, "timestamp": null, "begin": null, "end": null, "altitudeMode": null, "tessellate": -1, "extrude": -1, "visibility": 0, "drawOrder": null, "icon": null, "folders": "Wine Regions of the World\/\/Europe\/\/Wine Regions of France\/\/Jura\/\/" }, "geometry": { "type": "Point", "coordinates": [ 5.617448836136192, 46.747624149685031, 0.0 ] } },
{ "type": "Feature", "properties": { "Name": "AOC Ltoile", "description": null, "timestamp": null, "begin": null, "end": null, "altitudeMode": null, "tessellate": -1, "extrude": -1, "visibility": 0, "drawOrder": null, "icon": null, "folders": "Wine Regions of the World\/\/Europe\/\/Wine Regions of France\/\/Jura\/\/" }, "geometry": { "type": "Point", "coordinates": [ 5.549150277737169, 46.738361692236623, 0.0 ] } },
{ "type": "Feature", "properties": { "Name": "AOC Macvin du Jura", "description": null, "timestamp": null, "begin": null, "end": null, "altitudeMode": null, "tessellate": -1, "extrude": -1, "visibility": 0, "drawOrder": null, "icon": null, "folders": "Wine Regions of the World\/\/Europe\/\/Wine Regions of France\/\/Jura\/\/" }, "geometry": { "type": "Point", "coordinates": [ 5.595810003661754, 46.71559455863629, 0.0 ] } },
{ "type": "Feature", "properties": { "Name": "AOC Barn", "description": null, "timestamp": null, "begin": null, "end": null, "altitudeMode": null, "tessellate": -1, "extrude": -1, "visibility": 0, "drawOrder": null, "icon": null, "folders": "Wine Regions of the World\/\/Europe\/\/Wine Regions of France\/\/Sud-Ouest\/\/" }, "geometry": { "type": "Point", "coordinates": [ -0.651025844115978, 43.377702938830801, 0.0 ] } },
{ "type": "Feature", "properties": { "Name": "AOC Barn-Bellocq", "description": null, "timestamp": null, "begin": null, "end": null, "altitudeMode": null, "tessellate": -1, "extrude": -1, "visibility": 0, "drawOrder": null, "icon": null, "folders": "Wine Regions of the World\/\/Europe\/\/Wine Regions of France\/\/Sud-Ouest\/\/" }, "geometry": { "type": "Point", "coordinates": [ -0.919427301699088, 43.513477349681708, 0.0 ] } },
{ "type": "Feature", "properties": { "Name": "AOC Bergerac", "description": null, "timestamp": null, "begin": null, "end": null, "altitudeMode": null, "tessellate": -1, "extrude": -1, "visibility": 0, "drawOrder": null, "icon": null, "folders": "Wine Regions of the World\/\/Europe\/\/Wine Regions of France\/\/Sud-Ouest\/\/" }, "geometry": { "type": "Point", "coordinates": [ 0.446684793985597, 44.845652846150841, 0.0 ] } },
{ "type": "Feature", "properties": { "Name": "AOC Buzet", "description": null, "timestamp": null, "begin": null, "end": null, "altitudeMode": null, "tessellate": -1, "extrude": -1, "visibility": 0, "drawOrder": null, "icon": null, "folders": "Wine Regions of the World\/\/Europe\/\/Wine Regions of France\/\/Sud-Ouest\/\/" }, "geometry": { "type": "Point", "coordinates": [ 0.31078082121148, 44.243197647814441, 0.0 ] } },
{ "type": "Feature", "properties": { "Name": "AOC Cahors", "description": null, "timestamp": null, "begin": null, "end": null, "altitudeMode": null, "tessellate": -1, "extrude": -1, "visibility": 0, "drawOrder": null, "icon": null, "folders": "Wine Regions of the World\/\/Europe\/\/Wine Regions of France\/\/Sud-Ouest\/\/" }, "geometry": { "type": "Point", "coordinates": [ 1.402218036243738, 44.488407430947227, 0.0 ] } },
{ "type": "Feature", "properties": { "Name": "AOC Ctes de Bergerac", "description": null, "timestamp": null, "begin": null, "end": null, "altitudeMode": null, "tessellate": -1, "extrude": -1, "visibility": 0, "drawOrder": null, "icon": null, "folders": "Wine Regions of the World\/\/Europe\/\/Wine Regions of France\/\/Sud-Ouest\/\/" }, "geometry": { "type": "Point", "coordinates": [ 0.520545219728575, 44.870806387433547, 0.0 ] } },
{ "type": "Feature", "properties": { "Name": "AOC Ctes de Duras", "description": null, "timestamp": null, "begin": null, "end": null, "altitudeMode": null, "tessellate": -1, "extrude": -1, "visibility": 0, "drawOrder": null, "icon": null, "folders": "Wine Regions of the World\/\/Europe\/\/Wine Regions of France\/\/Sud-Ouest\/\/" }, "geometry": { "type": "Point", "coordinates": [ 0.199276091081345, 44.678684930178093, 0.0 ] } },
{ "type": "Feature", "properties": { "Name": "AOC Ctes du Frontonnais", "description": null, "timestamp": null, "begin": null, "end": null, "altitudeMode": null, "tessellate": -1, "extrude": -1, "visibility": 0, "drawOrder": null, "icon": null, "folders": "Wine Regions of the World\/\/Europe\/\/Wine Regions of France\/\/Sud-Ouest\/\/" }, "geometry": { "type": "Point", "coordinates": [ 1.414399276129075, 43.859634607789452, 0.0 ] } },
{ "type": "Feature", "properties": { "Name": "AOC Ctes du Marmandais", "description": null, "timestamp": null, "begin": null, "end": null, "altitudeMode": null, "tessellate": -1, "extrude": -1, "visibility": 0, "drawOrder": null, "icon": null, "folders": "Wine Regions of the World\/\/Europe\/\/Wine Regions of France\/\/Sud-Ouest\/\/" }, "geometry": { "type": "Point", "coordinates": [ 0.183608429563392, 44.52313875788515, 0.0 ] } },
{ "type": "Feature", "properties": { "Name": "AOC Ctes de Montravel", "description": null, "timestamp": null, "begin": null, "end": null, "altitudeMode": null, "tessellate": -1, "extrude": -1, "visibility": 0, "drawOrder": null, "icon": null, "folders": "Wine Regions of the World\/\/Europe\/\/Wine Regions of France\/\/Sud-Ouest\/\/" }, "geometry": { "type": "Point", "coordinates": [ 0.055317982326685, 44.845415365479127, 0.0 ] } },
{ "type": "Feature", "properties": { "Name": "AOC Gaillac", "description": null, "timestamp": null, "begin": null, "end": null, "altitudeMode": null, "tessellate": -1, "extrude": -1, "visibility": 0, "drawOrder": null, "icon": null, "folders": "Wine Regions of the World\/\/Europe\/\/Wine Regions of France\/\/Sud-Ouest\/\/" }, "geometry": { "type": "Point", "coordinates": [ 2.937188284035173, 44.3481165426738, 0.0 ] } },
{ "type": "Feature", "properties": { "Name": "AOC Haut-Montravel", "description": null, "timestamp": null, "begin": null, "end": null, "altitudeMode": null, "tessellate": -1, "extrude": -1, "visibility": 0, "drawOrder": null, "icon": null, "folders": "Wine Regions of the World\/\/Europe\/\/Wine Regions of France\/\/Sud-Ouest\/\/" }, "geometry": { "type": "Point", "coordinates": [ 0.170952140098663, 44.865032939861337, 0.0 ] } },
{ "type": "Feature", "properties": { "Name": "AOC Iroulguy", "description": null, "timestamp": null, "begin": null, "end": null, "altitudeMode": null, "tessellate": -1, "extrude": -1, "visibility": 0, "drawOrder": null, "icon": null, "folders": "Wine Regions of the World\/\/Europe\/\/Wine Regions of France\/\/Sud-Ouest\/\/" }, "geometry": { "type": "Point", "coordinates": [ -1.299508239382961, 43.183470774115207, 0.0 ] } },
{ "type": "Feature", "properties": { "Name": "AOC Juranon", "description": null, "timestamp": null, "begin": null, "end": null, "altitudeMode": null, "tessellate": -1, "extrude": -1, "visibility": 0, "drawOrder": null, "icon": null, "folders": "Wine Regions of the World\/\/Europe\/\/Wine Regions of France\/\/Sud-Ouest\/\/" }, "geometry": { "type": "Point", "coordinates": [ -0.382336309613791, 43.235117257427177, 0.0 ] } },
{ "type": "Feature", "properties": { "Name": "AOC Madiran", "description": null, "timestamp": null, "begin": null, "end": null, "altitudeMode": null, "tessellate": -1, "extrude": -1, "visibility": 0, "drawOrder": null, "icon": null, "folders": "Wine Regions of the World\/\/Europe\/\/Wine Regions of France\/\/Sud-Ouest\/\/" }, "geometry": { "type": "Point", "coordinates": [ -0.044668062729983, 43.542689364212762, 0.0 ] } },
{ "type": "Feature", "properties": { "Name": "AOC Marcillac", "description": null, "timestamp": null, "begin": null, "end": null, "altitudeMode": null, "tessellate": -1, "extrude": -1, "visibility": 0, "drawOrder": null, "icon": null, "folders": "Wine Regions of the World\/\/Europe\/\/Wine Regions of France\/\/Sud-Ouest\/\/" }, "geometry": { "type": "Point", "coordinates": [ 2.467616713573165, 44.480640543460289, 0.0 ] } },
{ "type": "Feature", "properties": { "Name": "AOC Monbazillac", "description": null, "timestamp": null, "begin": null, "end": null, "altitudeMode": null, "tessellate": -1, "extrude": -1, "visibility": 0, "drawOrder": null, "icon": null, "folders": "Wine Regions of the World\/\/Europe\/\/Wine Regions of France\/\/Sud-Ouest\/\/" }, "geometry": { "type": "Point", "coordinates": [ 0.494340902025996, 44.786287805587612, 0.0 ] } },
{ "type": "Feature", "properties": { "Name": "AOC Pacherenc du Vic-Bilh", "description": null, "timestamp": null, "begin": null, "end": null, "altitudeMode": null, "tessellate": -1, "extrude": -1, "visibility": 0, "drawOrder": null, "icon": null, "folders": "Wine Regions of the World\/\/Europe\/\/Wine Regions of France\/\/Sud-Ouest\/\/" }, "geometry": { "type": "Point", "coordinates": [ 0.050425788457574, 43.548825859455462, 0.0 ] } },
{ "type": "Feature", "properties": { "Name": "AOC Pcharmant", "description": null, "timestamp": null, "begin": null, "end": null, "altitudeMode": null, "tessellate": -1, "extrude": -1, "visibility": 0, "drawOrder": null, "icon": null, "folders": "Wine Regions of the World\/\/Europe\/\/Wine Regions of France\/\/Sud-Ouest\/\/" }, "geometry": { "type": "Point", "coordinates": [ 1.606746381319738, 44.897632361822019, 0.0 ] } },
{ "type": "Feature", "properties": { "Name": "AOC Rosette", "description": null, "timestamp": null, "begin": null, "end": null, "altitudeMode": null, "tessellate": -1, "extrude": -1, "visibility": 0, "drawOrder": null, "icon": null, "folders": "Wine Regions of the World\/\/Europe\/\/Wine Regions of France\/\/Sud-Ouest\/\/" }, "geometry": { "type": "Point", "coordinates": [ 0.454495267468317, 44.923293579133137, 0.0 ] } },
{ "type": "Feature", "properties": { "Name": "AOC Saussignac", "description": null, "timestamp": null, "begin": null, "end": null, "altitudeMode": null, "tessellate": -1, "extrude": -1, "visibility": 0, "drawOrder": null, "icon": null, "folders": "Wine Regions of the World\/\/Europe\/\/Wine Regions of France\/\/Sud-Ouest\/\/" }, "geometry": { "type": "Point", "coordinates": [ 0.326832879084236, 44.819679610035116, 0.0 ] } },
{ "type": "Feature", "properties": { "Name": "AOC Ajaccio", "description": null, "timestamp": null, "begin": null, "end": null, "altitudeMode": null, "tessellate": -1, "extrude": -1, "visibility": 0, "drawOrder": null, "icon": null, "folders": "Wine Regions of the World\/\/Europe\/\/Wine Regions of France\/\/Corse\/\/" }, "geometry": { "type": "Point", "coordinates": [ 8.804930084191708, 41.88872288195499, 0.0 ] } },
{ "type": "Feature", "properties": { "Name": "AOC Muscat du Cap Corse", "description": null, "timestamp": null, "begin": null, "end": null, "altitudeMode": null, "tessellate": -1, "extrude": -1, "visibility": 0, "drawOrder": null, "icon": null, "folders": "Wine Regions of the World\/\/Europe\/\/Wine Regions of France\/\/Corse\/\/" }, "geometry": { "type": "Point", "coordinates": [ 9.353639374089298, 42.968474454660793, 0.0 ] } },
{ "type": "Feature", "properties": { "Name": "AOC Patrimonio", "description": null, "timestamp": null, "begin": null, "end": null, "altitudeMode": null, "tessellate": -1, "extrude": -1, "visibility": 0, "drawOrder": null, "icon": null, "folders": "Wine Regions of the World\/\/Europe\/\/Wine Regions of France\/\/Corse\/\/" }, "geometry": { "type": "Point", "coordinates": [ 9.308201470393474, 42.682299976617628, 0.0 ] } },
{ "type": "Feature", "properties": { "Name": "AOC Vin de Corse", "description": null, "timestamp": null, "begin": null, "end": null, "altitudeMode": null, "tessellate": -1, "extrude": -1, "visibility": 0, "drawOrder": null, "icon": null, "folders": "Wine Regions of the World\/\/Europe\/\/Wine Regions of France\/\/Corse\/\/" }, "geometry": { "type": "Point", "coordinates": [ 9.508974389395576, 42.52622424802103, 0.0 ] } },
{ "type": "Feature", "properties": { "Name": "AOC Bandol", "description": null, "timestamp": null, "begin": null, "end": null, "altitudeMode": null, "tessellate": -1, "extrude": -1, "visibility": 0, "drawOrder": null, "icon": null, "folders": "Wine Regions of the World\/\/Europe\/\/Wine Regions of France\/\/Provence\/\/" }, "geometry": { "type": "Point", "coordinates": [ 5.723752732859836, 43.150480795123343, 0.0 ] } },
{ "type": "Feature", "properties": { "Name": "AOC Bellet", "description": null, "timestamp": null, "begin": null, "end": null, "altitudeMode": null, "tessellate": -1, "extrude": -1, "visibility": 0, "drawOrder": null, "icon": null, "folders": "Wine Regions of the World\/\/Europe\/\/Wine Regions of France\/\/Provence\/\/" }, "geometry": { "type": "Point", "coordinates": [ 7.200440298227207, 43.740701037962459, 0.0 ] } },
{ "type": "Feature", "properties": { "Name": "AOC Cassis", "description": null, "timestamp": null, "begin": null, "end": null, "altitudeMode": null, "tessellate": -1, "extrude": -1, "visibility": 0, "drawOrder": null, "icon": null, "folders": "Wine Regions of the World\/\/Europe\/\/Wine Regions of France\/\/Provence\/\/" }, "geometry": { "type": "Point", "coordinates": [ 5.54761121470348, 43.22988520590836, 0.0 ] } },
{ "type": "Feature", "properties": { "Name": "AOC Coteaux d'Aix-en-Provence", "description": null, "timestamp": null, "begin": null, "end": null, "altitudeMode": null, "tessellate": -1, "extrude": -1, "visibility": 0, "drawOrder": null, "icon": null, "folders": "Wine Regions of the World\/\/Europe\/\/Wine Regions of France\/\/Provence\/\/" },